locationname,locationstatus,method,locationid,locationparentname,locationparentid,locationtype,locationtypecode,locationadminlevel,locationphysicaltype,locationphysicaltypecode,longitude,latitude
Mahasoa,active,create,39882beb-88df-4530-852b-a9c87e88aa49,,751592b8-9206-4967-8c38-a6cd5a24618a,Water Point,water_point,5,Building,bu,47.87444444,-22.40555556
Mahasoa Centre,active,create,6dc468fb-d198-4c02-bcbf-a6bf35a1cb8a,,68f938ca-5f90-44da-9cd5-f786622f1e30,Water Point,water_point,5,Building,bu,49.49878,-17.13556
Mahasoa I,active,create,ffd4f116-be21-48c2-b98c-d0a79265ccec,,05298366-d8c0-4f72-9f10-9669e8f06b0b,Water Point,water_point,5,Building,bu,49.67778,-16.70361
Mahasoa Nord,active,create,cbb4351f-ea0c-45cb-8d6e-1669ef3760f9,,68f938ca-5f90-44da-9cd5-f786622f1e30,Water Point,water_point,5,Building,bu,49.49414,-17.14519
Mahasoa Sud,active,create,e1534a06-9697-4972-a75f-ec1ddcecb82a,,68f938ca-5f90-44da-9cd5-f786622f1e30,Water Point,water_point,5,Building,bu,49.49306,-17.1475
Mahasoa Sud,active,create,496ddf3e-8e83-4c65-af47-29126a569d3f,,68f938ca-5f90-44da-9cd5-f786622f1e30,Water Point,water_point,5,Building,bu,49.40369,-17.36847
Mahasorona,active,create,c91eb09c-8dc4-443c-9df7-4472dfda384d,,cd0c8f6f-d2ef-4dbd-9712-5ccc36c1e015,Water Point,water_point,5,Building,bu,49.82643,-16.38364
Mahatazantsoa Centre,active,create,0d1ee55b-6028-40c5-ba87-118cd545a089,,1a546a5e-573f-45df-b5e5-4fa11616d2a2,Water Point,water_point,5,Building,bu,46.79341,-16.25657
Mahatazantsoa Nord,active,create,d8197b20-2ebf-41c7-bd06-a73434406587,,1a546a5e-573f-45df-b5e5-4fa11616d2a2,Water Point,water_point,5,Building,bu,46.79343,-16.25617
Mahatazantsoasud,active,create,bc98c5e0-2ce4-4930-8856-395eeec75618,,1a546a5e-573f-45df-b5e5-4fa11616d2a2,Water Point,water_point,5,Building,bu,46.79347,-16.25716
Mahatera,active,create,bc8ee62a-2752-48bd-9a42-66b667881d15,,15e3dc94-d0c9-43f1-bbc5-4f3b19883f0f,Water Point,water_point,5,Building,bu,49.53194,-16.96375
Mahatsara,active,create,27a4bc92-14d2-44e0-85c2-949002b4ae1c,,eadf078b-2054-4723-8af1-5d16c18ac240,Water Point,water_point,5,Building,bu,49.24553,-17.42292
Mahatsara Marolinta,active,create,4035f872-9294-435d-ac80-84bf296ce67d,,79b58d2f-f069-41fe-87c5-45f20f3263c9,Water Point,water_point,5,Building,bu,44.63862,-25.107
Mahatsara Nosibe,active,create,3232cbc3-6904-493e-948f-459e8445cfc1,,eadf078b-2054-4723-8af1-5d16c18ac240,Water Point,water_point,5,Building,bu,49.24554,-17.42295
Mahatsara Sud,active,create,2a49560e-03b3-426c-ad10-f67e0f8263fe,,79b58d2f-f069-41fe-87c5-45f20f3263c9,Water Point,water_point,5,Building,bu,48.2978,-21.1783
Mahatsinjo,active,create,367849b4-d69f-4ef3-bdf8-dc7c4069d0f2,,3a549dea-f588-417b-a658-77f70cc9a9b4,Water Point,water_point,5,Building,bu,49.43953,-17.45961
Mahatsinjo,active,create,3755fd28-2eb0-48f3-9c9b-f26405b5db06,,faa85abb-bd9b-495f-8549-5efba48da916,Water Point,water_point,5,Building,bu,47.68806944,-22.80199722
Mahatsinjobe,active,create,cd4eafa0-cb58-48b1-aa3e-34aaa2a65349,,de8c2caa-43d7-4bd7-921d-2a9be307c143,Water Point,water_point,5,Building,bu,47.35777222,-22.48196667
MAHATSINJO CENTRE,active,create,1af20794-b567-4333-bb00-023885eef829,,eb8558f4-8224-4a75-8920-1826d1fb34e6,Water Point,water_point,5,Building,bu,46.55658333,-16.07527778
Mahatsinjo EPP,active,create,e6431c69-a786-44c9-b7cf-ba726b797ce5,,31344464-306c-4f4a-a70d-43ffbdfa19b2,Water Point,water_point,5,Building,bu,48.31880556,-21.24616389
Mahavelo,active,create,142357fe-e69a-405c-9f28-b87374702941,,8e46c0f7-3fac-41b9-8307-035998c709c0,Water Point,water_point,5,Building,bu,47.788672,-22.491081
Mahavelo,active,create,39077b53-0705-4afd-8ede-76df3bcfa353,,7ca0b7db-78bd-4878-97d3-1042f4353e68,Water Point,water_point,5,Building,bu,47.568,-23.32213
Mahavelo,active,create,59c3668f-2a6a-475c-bacc-2097e799be05,,4fa8031b-51a6-49a8-ac01-8dce533d58d0,Water Point,water_point,5,Building,bu,47.77978056,-22.91989167
Mahavelo,active,create,774ebf1a-5590-4706-9847-9db9c22a9302,,a6b2e537-03d2-48d5-965a-c80ac9e49e1b,Water Point,water_point,5,Building,bu,47.60118,-23.30374
Mahavelo,active,create,96d8dc34-065f-4de7-9b0f-cd8517ae678e,,4f3d45dd-a573-4e84-875c-87dadf9b45f5,Water Point,water_point,5,Building,bu,47.36796389,-22.36522222
Mahavelo Ampataka,active,create,48ebc5be-9d5d-483b-9887-d7688e05d2a8,,913a85b9-81e9-4a17-9363-8d482a8f8daf,Water Point,water_point,5,Building,bu,47.80221111,-22.16276667
Mahavelona,active,create,4be596bc-0b67-415d-a796-150b55f69f2a,,eadf078b-2054-4723-8af1-5d16c18ac240,Water Point,water_point,5,Building,bu,49.25431,-17.41753
Mahavelona,active,create,8d88b8c4-4a4c-450d-8345-11f71c3e0308,,eadf078b-2054-4723-8af1-5d16c18ac240,Water Point,water_point,5,Building,bu,49.25483,-17.41767
Mahavokake,active,create,34ace15e-5c6f-4d35-8183-3f291a07f32f,,457c79c3-09a5-4967-abe5-9ba010354d1a,Site Communautaire,site_communautaire,5,Building,bu,,
Mahazoarivo,active,create,05571209-8078-47c8-83a1-7268c555604e,,23c35721-4ab5-4661-ad50-a1962bb7851d,Water Point,water_point,5,Building,bu,45.86758889,-23.73346111
Mahazoarivo,active,create,3ab9a9e9-99fb-4de8-848b-b743b30aa17a,,1ca7d983-3fc1-4051-ae7a-79d706bfbf18,Site Communautaire,site_communautaire,5,Building,bu,,
Mahazoarivo,active,create,94d51984-f245-4637-bd84-46352b5b4d6b,,702369a4-5a29-4bd5-924b-8b09cad4427d,Water Point,water_point,5,Building,bu,,
Mahazoarivo,active,create,b4a6765e-57e4-42f4-8e6d-243d1da74162,,affff8ba-86fb-4d6a-b3ba-e2643a7b67b4,Water Point,water_point,5,Building,bu,47.3322,-23.35477
Mahazogny,active,create,157d13cc-6c15-4f21-9531-83a4cbffedbb,,c149b572-ebc8-460b-8709-a7335b536d5f,Water Point,water_point,5,Building,bu,47.69445278,-22.56446389
Mahela,active,create,582d3c00-c52a-4d0f-9f10-ef01cc7ea16c,,a6b2e537-03d2-48d5-965a-c80ac9e49e1b,Water Point,water_point,5,Building,bu,47.60333,-23.29938
Mahela Ii,active,create,1c2d7cf0-b695-4872-9650-a83bea24b322,,cacefb35-c11d-4556-a969-6b7cf3b245aa,Water Point,water_point,5,Building,bu,47.49471,-23.35558
MAHENDRAKE,active,create,d7b8cef9-2549-4578-96be-44710d7fb3e0,,edd7bc75-fc97-4748-840c-2fc554322284,Site Communautaire,site_communautaire,5,Building,bu,,
Maheritioke,active,create,a71cbefa-dd03-4663-aedc-ac15ae17686b,,5d25d248-4468-4c96-a566-4a539c7928f8,Water Point,water_point,5,Building,bu,45.32582,-24.12987
Mahilivaza,active,create,049e9f74-b646-4025-920f-ec9bc4e58f14,,81fbdd83-3e3b-42a3-92c8-0c8a526a18d2,Water Point,water_point,5,Building,bu,44.94563889,-25.16322778
Mahoala Bas,active,create,7d6be0e8-2d14-49b2-854b-81464adc907b,,b717b9f1-85ef-4567-863f-5a5967804a0d,Water Point,water_point,5,Building,bu,,
Mahoala Bas II,active,create,3e64e935-4b25-4efa-b216-168d30ebabce,,b717b9f1-85ef-4567-863f-5a5967804a0d,Water Point,water_point,5,Building,bu,,
Maison Centrale (Fonja),active,create,65fe57b7-b991-4b50-8aec-db7966db0852,,15e3dc94-d0c9-43f1-bbc5-4f3b19883f0f,Water Point,water_point,5,Building,bu,49.58553,-16.91794
Maison Centrale Mananjary,active,create,88c813e4-0758-4cfb-a211-89f318e98be9,,edf88ab2-7614-46e0-bf11-881c4ceeb5e1,CSB2,csb2,5,Building,bu,,
Malaindrafoza,active,create,2ff82ee3-39e6-477f-bf39-088f1d6a472b,,64f0435f-ee39-47af-be9b-c2cb33618b2d,Water Point,water_point,5,Building,bu,48.09706667,-21.73131944
Malangeriake centre,active,create,d4e58e86-ae1d-44af-84f1-8ab027e5f7a5,,437a9492-22a6-4e12-9d03-efe8f0fa03b0,Water Point,water_point,5,Building,bu,,
Malangeriake centre,active,create,fb91385e-058f-48b8-b7d6-52b74e17219e,,437a9492-22a6-4e12-9d03-efe8f0fa03b0,Water Point,water_point,5,Building,bu,,
MALANGY,active,create,62b1b514-86e0-4fef-a673-ef2ef8517105,,f8f6820f-96eb-4999-82ec-8b809cff94de,Site Communautaire,site_communautaire,5,Building,bu,,
Maliorano,active,create,5896c1dd-f4f3-4ef3-ba27-03456542779c,,2d3e7ad3-a2a1-4b6e-bf2b-2edb8ffcd156,Water Point,water_point,5,Building,bu,46.96013,-23.43503
Manadaniresaka,active,create,1fc5ecad-edee-42da-9423-9e28a26047d9,,31344464-306c-4f4a-a70d-43ffbdfa19b2,Water Point,water_point,5,Building,bu,48.34113889,-21.23663889
Manakara,active,create,dbbfb82c-4304-4954-b292-94bdd018541d,,17588bca-da82-458e-8c57-f9ad3b095026,SDSP,sdsp,5,Building,bu,,
MANAKARALAHY NORD,active,create,3efa4bfb-d1b6-42b8-ada9-52bf7d008c07,,84a0d267-b156-44f8-8b14-dccc838762ea,Water Point,water_point,5,Building,bu,,
MANAKARA VAVY,active,create,9ced282b-48bc-4294-9234-63d5dfd5f717,,84a0d267-b156-44f8-8b14-dccc838762ea,Water Point,water_point,5,Building,bu,,
Manakatafana Carreaux Ii,active,create,bfccd96e-434f-4ea3-b041-4201df8131fc,,15e3dc94-d0c9-43f1-bbc5-4f3b19883f0f,Water Point,water_point,5,Building,bu,49.52136,-17.06633
Manambo,active,create,fd7c588f-110c-4316-a9ef-c0cb6e23c14d,,9d134109-1521-4a0f-857d-29059588718d,Water Point,water_point,5,Building,bu,47.73608333,-23.03002222
Manambondro A Face De Gendarmerie,active,create,35c605ab-f528-422d-821e-6210d1a65faa,,ae63430f-0359-4f52-8427-e88001e999d7,Water Point,water_point,5,Building,bu,47.5488,-23.81837
Manambotra,active,create,43d9e1e4-7f2b-447a-89bc-5886abfc23f2,,554d185a-2816-4732-b183-9c370db14ea1,Village,village,5,Building,bu,47.73566,-22.1622
Manambotra,active,create,e22705c2-482a-43a7-af8e-4899d589a0c5,,554d185a-2816-4732-b183-9c370db14ea1,Water Point,water_point,5,Building,bu,47.73566,-22.1622
Manambotra Sud,active,create,969ea618-8fec-4b7c-8a43-809117afcab6,,4fa8031b-51a6-49a8-ac01-8dce533d58d0,Water Point,water_point,5,Building,bu,47.806131,-22.927644
Manandrotsy,active,create,6ba1fc3b-d6e8-4151-b55d-276e5c2c6a70,,23c35721-4ab5-4661-ad50-a1962bb7851d,Site Communautaire,site_communautaire,5,Building,bu,,
Mananonoka 1,active,create,0223c929-ca07-4029-ace2-653d69d0031e,,053d4f7a-b383-4faa-b224-8418ecabf446,Water Point,water_point,5,Building,bu,49.24,-17.4451
Mananonoka 1,active,create,9d4f2dbc-2785-407f-a72c-5e52a8e518f6,,053d4f7a-b383-4faa-b224-8418ecabf446,Water Point,water_point,5,Building,bu,49.23839,-17.44553
Mananonoka 2,active,create,1988f8b9-5795-4ecf-b70a-ec8efec7ef41,,053d4f7a-b383-4faa-b224-8418ecabf446,Water Point,water_point,5,Building,bu,49.24,-17.44517
Mananonoka 2,active,create,6c0327c9-0a35-4a2c-971c-cb8d5af8ea74,,053d4f7a-b383-4faa-b224-8418ecabf446,Water Point,water_point,5,Building,bu,49.23837,-17.445535
Mananovy,active,create,6afa9a6e-7c21-41a4-a45a-9bedf99383c4,,23c35721-4ab5-4661-ad50-a1962bb7851d,Site Communautaire,site_communautaire,5,Building,bu,45.77285,-23.73085
MANARATSANDRY,active,create,1a38274f-d8a1-40ac-b45a-88dc1551d036,,df16044d-7511-4334-9728-e8735eab9935,Water Point,water_point,5,Building,bu,46.507,-15.715
Manasoa,active,create,a270cdd0-6e53-45a5-9c1a-ea6974ac6136,,e9bfd037-3c2b-4697-b9d8-a5fed6c85641,Water Point,water_point,5,Building,bu,47.631844,-23.358631
Manavy,active,create,d15522aa-3a1c-482e-b2b8-93c13515289c,,d18ae17a-faae-4e40-bb4d-540641d494c0,Water Point,water_point,5,Building,bu,,
Mandabe,active,create,569d85e9-49cd-4cf6-996d-d17ec62c7428,,6eb5c944-e2c7-4eac-93a9-ad7996924fce,Site Communautaire,site_communautaire,5,Building,bu,,
Mandabe,active,create,bba99427-6a1a-4650-aa75-b972bf24655f,,5e1ddbbb-a08c-4a05-a225-36788acf6baa,Water Point,water_point,5,Building,bu,45.75953,-24.83735
Mandabe,active,create,e25e3bb9-97be-4500-8a85-697bda83081b,,5e1ddbbb-a08c-4a05-a225-36788acf6baa,Site Communautaire,site_communautaire,5,Building,bu,,
Mandabe Ankilimaro,active,create,7b95843b-7fb2-4f14-a6f1-527faa6dc399,,003dce7d-5c67-4111-a11e-44b7688d03d1,Water Point,water_point,5,Building,bu,,
Mandatsa,active,create,80e88b90-8e51-4540-ac4d-11da7e3ab3a2,,5c4426f6-3612-499a-bf76-56323c7a65b1,Water Point,water_point,5,Building,bu,47.69518,-22.54452
MANDILY,active,create,6de9de0a-6e28-4499-919e-dea0a18ef660,,2601ccb0-b1e8-4ee7-ba9a-e9d2f9d48f06,Site Communautaire,site_communautaire,5,Building,bu,,
Mandiso,active,create,5d6e98c1-da57-405b-99b3-b076120e95cd,,b26243a3-a312-4841-a6cd-4f7718bfb508,Water Point,water_point,5,Building,bu,46.83199,-24.85807
Mandiso centre,active,create,b8c6ef55-28e5-4e7a-a1f1-a1e1bf6b2c05,,b26243a3-a312-4841-a6cd-4f7718bfb508,Water Point,water_point,5,Building,bu,46.83199444,-24.85807222
Mandiso centre,active,create,e0feffd4-b5ab-4a63-a848-632eda303a04,,b26243a3-a312-4841-a6cd-4f7718bfb508,Water Point,water_point,5,Building,bu,0,0
Mandrirano,active,create,5d2807ee-fc07-4cbe-ab39-922a6866587c,,7a781fab-5cf6-44df-a9e6-9203b3fb9e2a,Water Point,water_point,5,Building,bu,47.00817,-23.6392
Mandritsara,active,create,9f1f5867-9099-4110-a4c1-aa8dd07737d2,,1bb1295a-ad1e-4a20-a8d2-5a0bb26d6691,Water Point,water_point,5,Building,bu,47.48648,-23.20117
Mandritsarahely,active,create,159c11da-e9b5-472c-a96a-5e0fa81e389e,,1a546a5e-573f-45df-b5e5-4fa11616d2a2,Water Point,water_point,5,Building,bu,46.90969167,-16.36985833
Mandromodromotra centre,active,create,261c0fb8-b0e2-46a3-91c9-2c2314f965a4,,b5b1e61b-f82e-48bb-8077-c5251a677fe2,Water Point,water_point,5,Building,bu,47.01116667,-24.8953
Mandromondromotra,active,create,395ca301-a9dd-4b7b-8eb0-2887da99c80d,,b5b1e61b-f82e-48bb-8077-c5251a677fe2,Water Point,water_point,5,Building,bu,47.01117,-24.8953
Mandrosoa 12 Km,active,create,34eafa97-d441-4567-98e8-ce4e69f586d9,,6563266a-7170-4590-bd92-59c17d102eb2,Water Point,water_point,5,Building,bu,46.72939,-16.07475
MANDROSOA 12KM CROISEMENT 12,active,create,14f087b7-f59e-46f2-b29f-43c67f7f1420,,c2df9c51-6629-4756-ab37-d58d51c02b30,Water Point,water_point,5,Building,bu,46.724596,-16.072432
Manerinerina Centre,active,create,28c397a8-31f2-4465-b40c-66f818157d86,,8d3b5f20-903b-4175-9b05-18a57fe3d94c,Water Point,water_point,5,Building,bu,47.30247222,-16.28385833
MANERINERINA TSENA,active,create,579a114d-7b64-49ce-b41c-5663700ea22c,,8d3b5f20-903b-4175-9b05-18a57fe3d94c,Water Point,water_point,5,Building,bu,47.30539806,-16.27469444
Manevy,active,create,28ace43e-b581-45ff-9c62-77f7e38258a2,,6eb5c944-e2c7-4eac-93a9-ad7996924fce,Site Communautaire,site_communautaire,5,Building,bu,,
Mangabe,active,create,07304ef6-ec47-446d-a373-434150377b90,,9d83a546-65b4-486a-b989-9192222167ba,Water Point,water_point,5,Building,bu,45.93578,-15.94119
Mangaika,active,create,04cce847-6500-431f-87ec-06b50c6e4996,,8cd349af-726c-47bf-b41f-38738f2cc2d0,Village,village,5,Building,bu,48.12088,-21.7975
Mangaika,active,create,b531d66c-f960-45f0-bdae-197ddcbdaf06,,8cd349af-726c-47bf-b41f-38738f2cc2d0,Water Point,water_point,5,Building,bu,48.12088,-21.7975
Mangapaika Sect 1,active,create,bf3d7aef-d27c-4646-b3eb-7b50daa71013,,46fc74b7-9406-4337-b596-2dfe4cb5eb95,Water Point,water_point,5,Building,bu,46.66164,-15.95108
MANGAPAIKY,active,create,8a56c8aa-fbb5-4681-913b-63e46fa3abfe,,46fc74b7-9406-4337-b596-2dfe4cb5eb95,Water Point,water_point,5,Building,bu,46.691998,-15.990256
Mangarivotra,active,create,f3d25597-62ea-4bb3-a556-0ca1cc86a9c6,,2ac11983-82a5-40a1-81db-f326b996da2e,Water Point,water_point,5,Building,bu,46.76912,-16.41217
Mangaroa,active,create,1d5815e9-1c81-4d49-9a30-22e712fc059b,,5e1ddbbb-a08c-4a05-a225-36788acf6baa,Water Point,water_point,5,Building,bu,45.44175,-24.06341
MANGAROA,active,create,3e17a8d5-4e21-451a-b4b9-5ecb692c2b4d,,2ac11983-82a5-40a1-81db-f326b996da2e,Water Point,water_point,5,Building,bu,,
Mangasoavozo,active,create,8a8cb74a-6a14-4d1c-aa3b-28fc7d7da3a8,,03e7aa0c-a775-4413-9ab4-b34e336faa47,Water Point,water_point,5,Building,bu,45.84521667,-16.02604444
Mangasoavozo Epp,active,create,191c9127-c613-4a8a-a0f6-b55958a92142,,03e7aa0c-a775-4413-9ab4-b34e336faa47,Water Point,water_point,5,Building,bu,45.84528,-16.026
Mangatoka Epp,active,create,6fef99ec-278f-4d63-9d54-ad9e7e53607d,,a4b61c4a-4f88-4154-aa5b-d4908ccdfdaf,Water Point,water_point,5,Building,bu,,
Mangatsiaka,active,create,e9d339e3-3ee7-4693-8011-c897a6e75e7c,,1eeee4cc-73ed-43c3-a75e-c15c9b372c32,Water Point,water_point,5,Building,bu,45.91558,-15.97025
Manindra,active,create,22e3b9bd-e837-4669-aeeb-6ca1dd763fb8,,f154f739-9998-43b3-85ca-33a4dfd4fb68,Site Communautaire,site_communautaire,5,Building,bu,46.315742,-25.145079
Maningavahatry,active,create,495ab47d-5e54-4e71-a19e-485cd2c9702b,,23c35721-4ab5-4661-ad50-a1962bb7851d,Site Communautaire,site_communautaire,5,Building,bu,,
Manintsevo,active,create,03ba1021-7912-4caf-bdb8-b63a3c0cb391,,48e6b0ce-08cb-48b5-8066-254ed2e8ad8f,Site Communautaire,site_communautaire,5,Building,bu,,
Manisy,active,create,83aec491-fe79-4c72-82b3-8ae359f0d09d,,449f3116-932e-47b8-99f3-d5dab0a81f7f,Water Point,water_point,5,Building,bu,46.73496,-25.05323
Manisy centre,active,create,68fefab6-b42c-441e-93cd-adbbdb2cfc89,,449f3116-932e-47b8-99f3-d5dab0a81f7f,Water Point,water_point,5,Building,bu,46.73495833,-25.05322778
Manja,active,create,a71f3793-2cc0-4bda-aea5-ac09ff9ba267,,d2953469-fbf7-4ece-a9df-8c1b00a96ede,Site Communautaire,site_communautaire,5,Building,bu,,
Manjarivo,active,create,ad665241-a5d8-4508-9974-4763bf8687f9,,0546e4e5-1860-451f-9ba8-e623cc89612f,Water Point,water_point,5,Building,bu,47.86955833,-22.095925
Manjato I,active,create,71961933-3535-4107-9291-af00e680e5e9,,f8a96f70-3460-4957-bb58-146714a1de08,Water Point,water_point,5,Building,bu,49.65775,-16.817
Manjato Ii,active,create,12f6a47f-b8ed-4b85-b79a-31da7c73ce6e,,f8a96f70-3460-4957-bb58-146714a1de08,Water Point,water_point,5,Building,bu,49.65967,-16.81603
Manombo,active,create,1ae8bd93-343b-49f6-84f4-5b900eca5a25,,d31e73a7-c487-44dc-8a32-d70ac572ad81,Site Communautaire,site_communautaire,5,Building,bu,,
Manombo,active,create,86a7b096-3cfc-46f7-acd2-89d351575ec8,,48e6b0ce-08cb-48b5-8066-254ed2e8ad8f,Water Point,water_point,5,Building,bu,46.37296,-25.11177
MANOMBOBE,active,create,8c89e9f8-11ac-4fd8-bc81-940613c220d0,,d31e73a7-c487-44dc-8a32-d70ac572ad81,Water Point,water_point,5,Building,bu,,
Manombo/ Tanemena,active,create,65739e2b-5684-437f-80d2-1c38679369ce,,79b58d2f-f069-41fe-87c5-45f20f3263c9,Site Communautaire,site_communautaire,5,Building,bu,,
Manongaroa,active,create,ea02fc6b-e928-480f-a945-a84afc558915,,4fa8031b-51a6-49a8-ac01-8dce533d58d0,Water Point,water_point,5,Building,bu,47.77762778,-22.92755556
MANTARA,active,create,2f0f6221-f40c-4f25-b4ad-afe9e45e3c7b,,cbd7ab07-5855-4335-85fb-7514bd0c8bab,Site Communautaire,site_communautaire,5,Building,bu,,
Mantsake,active,create,52b16e04-dbef-425f-881c-5ba35be1d005,,d2953469-fbf7-4ece-a9df-8c1b00a96ede,Site Communautaire,site_communautaire,5,Building,bu,,
Maraomby,active,create,0c46c789-20c3-404b-9c9b-42a81362de28,,efe2bb66-0cc4-4227-9795-57afd8478ce3,Water Point,water_point,5,Building,bu,47.498733,-22.740664
Maraomby,active,create,fe7de4c6-2578-4aed-bc23-179f2dfe82a0,,efe2bb66-0cc4-4227-9795-57afd8478ce3,Water Point,water_point,5,Building,bu,47.49873333,-22.74066389
Mareagne Tsihelegne,active,create,319f9317-2ab0-49e5-8a58-00d784c9a371,,457c79c3-09a5-4967-abe5-9ba010354d1a,Site Communautaire,site_communautaire,5,Building,bu,,
Marevoke,active,create,65b60003-8154-4eb7-a268-13a94bd3bc9d,,5e1ddbbb-a08c-4a05-a225-36788acf6baa,Water Point,water_point,5,Building,bu,45.33031,-24.09165
Mariana Epp,active,create,d66fff2b-4f3c-4680-a941-8a25c0ac1748,,ce8706c0-b341-4ef0-8098-5217b4b58f5c,Water Point,water_point,5,Building,bu,48.00545,-21.96083611
Mariany,active,create,b0672d44-e93a-4b47-8073-7b8ff4a091fd,,36e3dba2-cdef-499a-be32-a75636fcddc9,Water Point,water_point,5,Building,bu,0,0
Mariany,active,create,d67c1b7b-2f4a-4123-9c5f-19c4a8aed742,,1924b614-2fdb-4a0c-86ca-6eb56d9f09bf,Water Point,water_point,5,Building,bu,48.005862,-22.143297
Mariany,active,create,e9446641-7789-41a6-a6e5-e2609cc732ff,,ce8706c0-b341-4ef0-8098-5217b4b58f5c,Village,village,5,Building,bu,47.51628,-23.35103
Marindonaky,active,create,95d5ce9e-4dfc-4e75-ad4f-cf75a530b73e,,5d7f54c9-bed4-4d0d-98a2-132b024f076e,Water Point,water_point,5,Building,bu,47.68093,-23.2102
Maroafo Marofoty,active,create,2c0e5a37-a0dc-4731-a10e-2be7c7c5ae39,,8a6ef53a-03ec-4e00-a880-75e698c808fe,Site Communautaire,site_communautaire,5,Building,bu,,
MAROAKALO,active,create,d22d118a-76fa-4db2-b90b-bf1eb08ae16c,,409bb851-c200-4643-b590-5f0b2005e8d2,Site Communautaire,site_communautaire,5,Building,bu,,
Maroaky,active,create,2a28b373-a5b8-4579-bbe4-3fcc2edb41e4,,bbf51669-1e92-493b-bc33-395378f2943d,Water Point,water_point,5,Building,bu,46.70459611,-25.1616
Maroalimainty,active,create,b5df4da1-a203-4fb9-ad40-270733078a5c,,44757477-a950-4af9-b9cd-a68ea0e5bcc5,Water Point,water_point,5,Building,bu,46.25571,-25.17198
Maroalipoty,active,create,ca8242c3-8e1e-4283-bf9a-c151052369df,,457c79c3-09a5-4967-abe5-9ba010354d1a,Water Point,water_point,5,Building,bu,46.19071,-25.20156
Maroalopoty I,active,create,77377867-9c42-47c1-8c4a-f12f384b708a,,457c79c3-09a5-4967-abe5-9ba010354d1a,Site Communautaire,site_communautaire,5,Building,bu,,
Maroalopoty II,active,create,8b563633-01f3-424f-9acc-3ffca63ef4d1,,457c79c3-09a5-4967-abe5-9ba010354d1a,Site Communautaire,site_communautaire,5,Building,bu,,
Maroalopoty III,active,create,d27ab841-59d1-438c-ab39-1b476bda9274,,457c79c3-09a5-4967-abe5-9ba010354d1a,Site Communautaire,site_communautaire,5,Building,bu,,
Maroantova,active,create,3e6ee586-074a-4f73-ba17-d6b1ac2768b3,,913a85b9-81e9-4a17-9363-8d482a8f8daf,Water Point,water_point,5,Building,bu,47.80955,-22.12086944
Maroaomby,active,create,53a3ead1-301b-4833-8b53-d59b53a097a0,,17b7a3d4-1a5e-4cda-8f6a-625da68b920a,Water Point,water_point,5,Building,bu,47.64951,-23.16319
Marobasia Nord,active,create,3d068d47-fe67-4642-a3f0-35155766a336,,bfc47a53-c417-4b92-b394-f669854729ec,Site Communautaire,site_communautaire,5,Building,bu,,
MAROBE,active,create,4b44a1f9-a38d-46bc-b626-e61f46c62271,,8f572186-72b7-414f-bd37-f4b91c431017,Site Communautaire,site_communautaire,5,Building,bu,,
Marodo Ankilemasy,active,create,7a2bded9-f1e8-417d-921d-df2ae230e3ef,,457c79c3-09a5-4967-abe5-9ba010354d1a,Site Communautaire,site_communautaire,5,Building,bu,,
MAROFANOGNE,active,create,d7bce2c4-d48c-4247-8a2d-b2c20ffca591,,f8f6820f-96eb-4999-82ec-8b809cff94de,Site Communautaire,site_communautaire,5,Building,bu,,
Marofantsika,active,create,d2c7a7b7-72cc-45e1-ad8c-d09bdd5889c5,,5d25d248-4468-4c96-a566-4a539c7928f8,Water Point,water_point,5,Building,bu,45.28888,-24.10025
Marofany,active,create,aa9d7d43-7f4f-4130-a8ca-1ea297139356,,4342c258-a4f9-4f05-8356-42be448ffec7,Site Communautaire,site_communautaire,5,Building,bu,,
MAROFANY,active,create,39167805-4de6-431b-adde-fe17096ff709,,38679362-2eb0-4eb1-87d0-6b78fa7e733d,Site Communautaire,site_communautaire,5,Building,bu,,
Marofarihy,active,create,c349b658-f5c8-4edb-ae2a-daaeea367da4,,8e46c0f7-3fac-41b9-8307-035998c709c0,Water Point,water_point,5,Building,bu,47.72423611,-22.73629167
Marofinaritra,active,create,25aeea14-3f5b-4f01-8237-a7201dbbe6a6,,9e0dac3f-285e-48a9-b708-e3b8b2c274e0,Water Point,water_point,5,Building,bu,49.49777,-17.09842
Marofinaritra,active,create,ae3fbb4e-d37e-4428-9b5c-06d4e8bd537a,,68f938ca-5f90-44da-9cd5-f786622f1e30,Water Point,water_point,5,Building,bu,49.386,-17.17802
Marofinaritra/Anivorano,active,create,b28644ca-3862-4269-8f3b-5b6d17d8aaf5,,053d4f7a-b383-4faa-b224-8418ecabf446,Water Point,water_point,5,Building,bu,49.21305,-17.40151
Marofinaritra/Anivorano,active,create,f4fe26ce-7860-4fb8-8230-4e82ef7cfaed,,053d4f7a-b383-4faa-b224-8418ecabf446,Water Point,water_point,5,Building,bu,49.21302,-17.40158
Marofinaritra /Marofinaritra,active,create,5e55ab67-aa21-486f-8cae-81fb6756b489,,053d4f7a-b383-4faa-b224-8418ecabf446,Water Point,water_point,5,Building,bu,49.2135,-17.40654
Marofinaritra /Marofinaritra,active,create,a8bed46f-1a29-4ba2-85f6-ca3267b25fca,,053d4f7a-b383-4faa-b224-8418ecabf446,Water Point,water_point,5,Building,bu,49.21338,-17.40646
Marofody,active,create,dc048681-4f19-4e89-a8e5-fc7a32488f3e,,26f97dfb-4df5-470b-9aed-4ec0d535d4c0,Water Point,water_point,5,Building,bu,47.52088,-22.82953
Marofototra,active,create,41185f7b-4443-4021-9623-77e14a200763,,05d247a1-575a-4a84-9fa2-58416adfda82,CSB2,csb2,5,Building,bu,,
MAROFOTY,active,create,cd7adc36-89ea-47b9-b102-a9a4ea4b2798,,275b01e2-b768-435f-9478-cbea5577bae3,Water Point,water_point,5,Building,bu,,
Marogidro,active,create,c8cfd87c-569a-4eca-bebb-7df810473f89,,9d83a546-65b4-486a-b989-9192222167ba,Water Point,water_point,5,Building,bu,45.84894,-15.94717
MAROGIDRO,active,create,a8c2cafc-32c6-403a-b0e1-d2f895018ba3,,9d83a546-65b4-486a-b989-9192222167ba,Water Point,water_point,5,Building,bu,45.853536,-15.961713
MAROGIDRO,active,create,b5d45fa8-b71e-4952-b8ee-98c744b4e23e,,9d83a546-65b4-486a-b989-9192222167ba,Water Point,water_point,5,Building,bu,46.84901,-15.94714
Marohabobo,active,create,e3a3dfcd-f6ea-4c48-a9dd-5e76b9eb1022,,5e1ddbbb-a08c-4a05-a225-36788acf6baa,Water Point,water_point,5,Building,bu,45.37421,-24.10152
Marohafotse,active,create,b44f3c2f-9fa9-494a-b093-600d109d5bba,,8a6ef53a-03ec-4e00-a880-75e698c808fe,Site Communautaire,site_communautaire,5,Building,bu,,
Marohala,active,create,280ff47d-06ae-49f4-aca2-0fef9da572e6,,554d185a-2816-4732-b183-9c370db14ea1,Village,village,5,Building,bu,47.73189,-22.15748
Marohala,active,create,28cc6b86-3a35-4215-b5fb-459f9595aaee,,554d185a-2816-4732-b183-9c370db14ea1,Water Point,water_point,5,Building,bu,47.73189,-22.15748
Maroharo,active,create,64af5e41-41a3-4fd2-b0d9-d3a1e791e050,,fff386bb-d84f-435f-9b88-e25027d06662,Water Point,water_point,5,Building,bu,45.47736,-24.82321
Maroharo,active,create,b8753005-891c-4798-94ef-af071e111511,,881e02a8-b2c9-4491-b303-27b008587a39,Water Point,water_point,5,Building,bu,,
Marohery,active,create,4b0b681b-5856-44a2-a3c8-ea2136a82789,,bfc47a53-c417-4b92-b394-f669854729ec,Site Communautaire,site_communautaire,5,Building,bu,,
MAROHIRA NORD,active,create,303a9123-0cfc-4829-9734-dd06b30cb17d,,edd7bc75-fc97-4748-840c-2fc554322284,Site Communautaire,site_communautaire,5,Building,bu,,
MAROHIRA SUD,active,create,9a340e4b-038a-48e4-bed9-9d9dc975586c,,edd7bc75-fc97-4748-840c-2fc554322284,Site Communautaire,site_communautaire,5,Building,bu,,
Marohosa Nord,active,create,4dd96ce2-aff8-4f97-a60a-444a68602a4a,,2e0f142a-d4e4-4d49-bb85-d88f3fb60663,Water Point,water_point,5,Building,bu,44.02004,-24.00744
Marohotro,active,create,c112924f-41a4-4c51-98f1-ceb3bce36b90,,aff4922a-e1fb-418e-83d1-54a3ef16c61f,Water Point,water_point,5,Building,bu,46.6025,-24.47694
Marokarima Hopitaly,active,create,8093c4a2-0ddd-4b6f-a2fb-a60c3cac7de7,,7b584f4b-fa90-459c-9c0f-d69ac7035f70,Water Point,water_point,5,Building,bu,48.14211111,-21.21716667
Marokarima Tampotanana 1,active,create,4a3fe937-3d0a-4f24-b4fd-803883469722,,7b584f4b-fa90-459c-9c0f-d69ac7035f70,Water Point,water_point,5,Building,bu,48.14180556,-21.22068056
Marokarima Tampotanana 2,active,create,a24e1a98-16e8-4eaa-bedc-73395bd23419,,7b584f4b-fa90-459c-9c0f-d69ac7035f70,Water Point,water_point,5,Building,bu,48.13947222,-21.22047222
Marokibo,active,create,12957a25-15b4-403a-b7c5-4bb0048cc7f6,,ceb2df81-4d6b-4537-8b07-c1acedd59bfc,Water Point,water_point,5,Building,bu,44.15422,-18.24099
Marokibo Centre,active,create,f57589ab-f139-4eee-9262-dcb5bca07fa2,,a8444c63-af70-47d2-a3fd-ee968ba44598,Water Point,water_point,5,Building,bu,47.551,-23.68128
MAROKIBO CENTRE,active,create,2696cd31-7a0b-4d75-b241-e44f0fbec054,,a8444c63-af70-47d2-a3fd-ee968ba44598,Water Point,water_point,5,Building,bu,47.548147,-23.681569
Marokibo Scb2,active,create,1e902ff3-809f-4570-a85e-eefab1c77bc4,,a8444c63-af70-47d2-a3fd-ee968ba44598,Water Point,water_point,5,Building,bu,47.54767,-23.68138
Marokibo Vohimanara,active,create,3ccb1f15-4224-443f-8957-f63281d2e9ad,,a8444c63-af70-47d2-a3fd-ee968ba44598,Water Point,water_point,5,Building,bu,47.55185,-23.68373
MAROLAVA,active,create,007e53f1-e584-479e-977a-d16522015d18,,42c86929-005d-42d1-8277-50e374ff3337,Water Point,water_point,5,Building,bu,,
Marolinta,active,create,245139ae-469f-4b0f-baa4-aa06929b992b,,79b58d2f-f069-41fe-87c5-45f20f3263c9,Site Communautaire,site_communautaire,5,Building,bu,,
Marolinta,active,create,9890598a-f5b4-42a9-8bcf-46658097b58d,,437a9492-22a6-4e12-9d03-efe8f0fa03b0,Water Point,water_point,5,Building,bu,43.974937,-24.783848
Maroloha,active,create,323d3fef-3a2a-45cb-a623-bdc7dc96a5a8,,6f7933af-a024-435e-a875-a73fbdb69180,Site Communautaire,site_communautaire,5,Building,bu,,
MAROMALAY,active,create,15581c4b-e9ca-42a3-bea6-badcaacf6fde,,f8f6820f-96eb-4999-82ec-8b809cff94de,Site Communautaire,site_communautaire,5,Building,bu,,
Maromandia,active,create,c023b16a-8ff2-4311-bf50-e00009f8fddd,,68f938ca-5f90-44da-9cd5-f786622f1e30,Water Point,water_point,5,Building,bu,49.45244,-17.10266
Maromby,active,create,b473f6b7-a6d4-44a8-8554-53b524f2f5b7,,aff4922a-e1fb-418e-83d1-54a3ef16c61f,Water Point,water_point,5,Building,bu,46.5765,-24.35209
Maromby Centre,active,create,f2855b03-38dc-4f0d-815e-5c58213a0391,,aff4922a-e1fb-418e-83d1-54a3ef16c61f,Water Point,water_point,5,Building,bu,46.5765,-24.352094
Maromiandra,active,create,a736087f-7cc1-4316-9ed9-fe3523a6cb6a,,024d01e6-01f4-4860-9780-846cdbec0836,Water Point,water_point,5,Building,bu,45.36795,-24.13736
Maromitety,active,create,2390fcef-f15d-4820-bad3-3909c8275e29,,eadf078b-2054-4723-8af1-5d16c18ac240,Water Point,water_point,5,Building,bu,49.28838,-17.44301
MAROMITETY,active,create,b9bb3766-fcbb-4c18-8ca2-548e69043dd7,,eadf078b-2054-4723-8af1-5d16c18ac240,Water Point,water_point,5,Building,bu,49.28833,-17.44278
Maropanahy,active,create,7e3f1cc0-1f09-4796-8189-c6980d34d82c,,4fa8031b-51a6-49a8-ac01-8dce533d58d0,Water Point,water_point,5,Building,bu,47.753258,-22.971756
Maropia  Ambohimazava,active,create,8ae40bfa-ce03-4c49-8f1c-7fc14aaa3d2c,,457c79c3-09a5-4967-abe5-9ba010354d1a,Site Communautaire,site_communautaire,5,Building,bu,,
Maropia Ankilibe,active,create,b342ddba-6927-4065-85f4-45af5cdc2d87,,457c79c3-09a5-4967-abe5-9ba010354d1a,Site Communautaire,site_communautaire,5,Building,bu,,
Maropia nord,active,create,8b00efab-6569-46c7-9392-5f31143bccdc,,457c79c3-09a5-4967-abe5-9ba010354d1a,Site Communautaire,site_communautaire,5,Building,bu,,
Marora,active,create,0ecc9d06-9d7c-4eed-babc-4309c702b2c7,,d31e73a7-c487-44dc-8a32-d70ac572ad81,Site Communautaire,site_communautaire,5,Building,bu,,
Marosangy,active,create,8b39499f-a3d8-4cec-b3d8-9f5c30604b55,,b4190ce8-39bf-49ae-aaac-3568b3f3da5e,CSB2,csb2,5,Building,bu,,
Marosoroka,active,create,f0f200e4-a4ed-469c-bc51-5bfb480015ba,,f8a96f70-3460-4957-bb58-146714a1de08,Water Point,water_point,5,Building,bu,49.62192,-16.86833
Marotody,active,create,c3d93d82-25cb-4800-a8a6-ea78c8fc1b71,,bb20d920-ef2d-4d18-8364-201949f3d6df,Water Point,water_point,5,Building,bu,47.44245,-23.08427
Marotrano,active,create,ba2dc5d1-9745-495f-b2a4-c639a296ff9f,,9e0dac3f-285e-48a9-b708-e3b8b2c274e0,Water Point,water_point,5,Building,bu,49.40038,-17.19903
Marotrano,active,create,baf4696c-8dfb-46d6-a50b-66f2a1dc9734,,9e0dac3f-285e-48a9-b708-e3b8b2c274e0,Water Point,water_point,5,Building,bu,49.40042,-17.19909
MAROVAHATSE,active,create,5fb7c9d9-4722-4f33-b3c3-8e6c8c5c1f4e,,84a0d267-b156-44f8-8b14-dccc838762ea,Water Point,water_point,5,Building,bu,44.302496,-24.162168
Marovaho,active,create,70d27063-d1f2-45f2-97e2-17502b9f93c3,,8580a687-cfd7-4ca7-85df-12e585021277,Site Communautaire,site_communautaire,5,Building,bu,,
Marovaho Haut,active,create,3f58ffb5-ca31-4dbb-8335-9c6e719e3b20,,8580a687-cfd7-4ca7-85df-12e585021277,Site Communautaire,site_communautaire,5,Building,bu,,
Marovala,active,create,95386455-bb01-4a29-b814-61478b2fc577,,08a61379-f59c-415b-bc5b-b03d941a9787,Site Communautaire,site_communautaire,5,Building,bu,,
Marovala,active,create,df85d034-741c-472b-9b24-bad90e878b18,,749e8f17-0875-423f-a1ec-953edfcd171c,Water Point,water_point,5,Building,bu,45.40244167,-24.2845
MAROVALA,active,create,7f13b1ae-a505-46c0-b537-bddc1c654030,,6eb5c944-e2c7-4eac-93a9-ad7996924fce,Water Point,water_point,5,Building,bu,,
Marovato,active,create,5d831060-c384-4983-a31e-24f0e08a7408,,cbd7ab07-5855-4335-85fb-7514bd0c8bab,Water Point,water_point,5,Building,bu,45.27398,-25.52994
MAROVATO,active,create,812329b1-43b6-4c22-8687-afe65026477b,,cbd7ab07-5855-4335-85fb-7514bd0c8bab,Site Communautaire,site_communautaire,5,Building,bu,,
Maroviro Centre,active,create,9c27dfb9-d2a0-401e-952d-2bba9c6d5851,,eff7b5fc-4224-4400-9165-0f3f7733a4a1,Water Point,water_point,5,Building,bu,45.85145,-24.24864
Marovotse Epp,active,create,ea820762-5b95-4a1d-b879-915a5064994e,,2e0f142a-d4e4-4d49-bb85-d88f3fb60663,Water Point,water_point,5,Building,bu,44.02128,-24.00867
MASIABOAY,active,create,52c79a74-c26d-45c0-8d9d-92eb35bd6381,,ba97f237-7ff7-4738-b835-00a78ec4bd42,Water Point,water_point,5,Building,bu,44.459038,-23.902027
Masiaboay Centre,active,create,2636485c-e63b-49ac-b1f2-c734be23393d,,ba97f237-7ff7-4738-b835-00a78ec4bd42,Water Point,water_point,5,Building,bu,,
Masianaka,active,create,136129e5-3a30-4399-8e35-25fee2e9230b,,c9033de8-da1d-4d65-a17e-22ca21224b05,Water Point,water_point,5,Building,bu,48.11811,-21.77908
Masianaka,active,create,f64c5812-28a7-48f4-aed6-74ef51a48559,,c9033de8-da1d-4d65-a17e-22ca21224b05,Village,village,5,Building,bu,48.11811,-21.77908
Masianaka 2,active,create,83d1267f-c42d-4cb5-9e5a-771c864801af,,c9033de8-da1d-4d65-a17e-22ca21224b05,Water Point,water_point,5,Building,bu,48.11812,-21.77908
Masihanaka Bureau Commune,active,create,a81e9b72-86df-4d5f-85b9-2b8a0e34972b,,066f9399-0022-4e2c-abcb-1d26f835710e,Water Point,water_point,5,Building,bu,47.62178,-23.5541
Masombaha,active,create,a497052c-0977-47e8-bb93-8a5a3d58924e,,81fbdd83-3e3b-42a3-92c8-0c8a526a18d2,Site Communautaire,site_communautaire,5,Building,bu,,
MATAVE,active,create,f7572b92-14d3-4806-8a9e-f4a92f2807d2,,84a0d267-b156-44f8-8b14-dccc838762ea,Water Point,water_point,5,Building,bu,44.30185,-24.25546
Matave Ankirava,active,create,a9d62863-f540-400f-91d2-a41dcaeb625e,,84a0d267-b156-44f8-8b14-dccc838762ea,Water Point,water_point,5,Building,bu,,
Matsaborivato,active,create,257e73df-9bd0-4234-8f73-c6a37c87e017,,8d3b5f20-903b-4175-9b05-18a57fe3d94c,Water Point,water_point,5,Building,bu,47.3065,-16.27511
MATSABORY VATO,active,create,fca5123d-0d39-4e6b-b2d2-a07b110ad230,,8d3b5f20-903b-4175-9b05-18a57fe3d94c,Water Point,water_point,5,Building,bu,47.237762,-16.180483
Matsiadava,active,create,3c5cf150-267a-42a7-b98e-ddee5f7d8fa8,,ef8a6a6f-7ac2-46d9-9467-ae88ed2a9ea4,Water Point,water_point,5,Building,bu,46.94415,-15.8706
Matsokely,active,create,1e3c23e0-fc63-47b6-8f30-d581c9499fa6,,15e3dc94-d0c9-43f1-bbc5-4f3b19883f0f,Water Point,water_point,5,Building,bu,49.58689,-16.90617
Medair Ambovombe,active,create,f3459181-0a3f-4bdf-95fa-a9b1b4f77b64,,f8f6820f-96eb-4999-82ec-8b809cff94de,NGO Partner,ngo_partner,5,Building,bu,,
MEDANA,active,create,23683e39-103f-43c7-acfa-f57cec2cc548,,eb8558f4-8224-4a75-8920-1826d1fb34e6,Water Point,water_point,5,Building,bu,,
Menambahy I,active,create,aed5619d-ba89-4398-9f85-23b73e6d62c1,,8580a687-cfd7-4ca7-85df-12e585021277,Site Communautaire,site_communautaire,5,Building,bu,,
Menatany,active,create,c799cfca-13d7-4f97-91b5-5f0690c15dbb,,15e3dc94-d0c9-43f1-bbc5-4f3b19883f0f,Water Point,water_point,5,Building,bu,49.57706,-16.95167
MEN TANA,active,create,524e6add-bb19-45cf-a3cb-dd71dbd5db51,,cfcdfdc5-3a52-4528-ba1f-753d8eed8aea,Warehouse,warehouse,5,Building,bu,47.518239,-18.917926
MGASIN REGIONAL DU DRSP,active,create,778f3e81-b201-40cc-9880-3fd124fefed2,,c4d59d0a-7b64-43c0-8df8-8fa1082261ba,DRSP,drsp,5,Building,bu,43.6753877,-23.3530268
Miary Betsileo,active,create,11493523-ae31-455c-b714-52a065e70684,,f125d884-4366-459a-9989-b9dd840687e3,Water Point,water_point,5,Building,bu,43.73124,-23.30379
Miary Haut,active,create,628aec8b-c226-4f12-80cf-f16306f26fdc,,8580a687-cfd7-4ca7-85df-12e585021277,Site Communautaire,site_communautaire,5,Building,bu,,
Mideboka,active,create,37666188-8b53-449e-8daf-82936313cecc,,94644df2-a3bf-4fd3-90a3-5d44e7c22ef1,Village,village,5,Building,bu,47.96155,-22.0322
Mideboka,active,create,52901784-2fc5-4e9a-9cbd-3c561aaefa58,,94644df2-a3bf-4fd3-90a3-5d44e7c22ef1,Water Point,water_point,5,Building,bu,47.96155,-22.0322
Mideboka - Vohibary,active,create,30a17182-c972-44d6-9cea-deea6a647aca,,813fa1a1-54f7-447d-850f-65b8de8e480d,Water Point,water_point,5,Building,bu,48.00314,-21.70939
Mideboka - Vohibary,active,create,a7c571e9-c5b4-4e45-ad73-ea9da481ec42,,813fa1a1-54f7-447d-850f-65b8de8e480d,Water Point,water_point,5,Building,bu,48.00314,-21.70939
Mikaikarivo,active,create,ded6ef02-a1c7-4bfc-b28b-03cb07c439eb,,881e02a8-b2c9-4491-b303-27b008587a39,Water Point,water_point,5,Building,bu,,
Mikaikarivo Centre,active,create,393a4140-941c-4a4f-a806-ac01a6f5cc65,,c88c6d52-991b-4d70-b832-158ee527e297,Water Point,water_point,5,Building,bu,,
Mikaikarivo I Centre,active,create,0d98047a-d238-4c63-bed5-aba8fe97ad08,,dfef62fd-14cb-41e0-9bbf-321d9a8b9311,Water Point,water_point,5,Building,bu,45.34463,-24.28331
Mikaikarivo Ii Est,active,create,80aef196-2cb7-451d-8eef-24c11e9ecbec,,dfef62fd-14cb-41e0-9bbf-321d9a8b9311,Water Point,water_point,5,Building,bu,45.3429,-24.11411
Mikaikarivo Iii,active,create,7a4baa00-684b-45c1-a9de-de5b87c1cb88,,9e96eb0a-60f8-4b35-aafe-fcf3cf3f773f,Water Point,water_point,5,Building,bu,45.3419,-24.11794
Mikaikarivo Ii Ouest,active,create,ce02951b-6f0f-48e5-9cba-8ae8c2b661fb,,dfef62fd-14cb-41e0-9bbf-321d9a8b9311,Water Point,water_point,5,Building,bu,45.12483,-24.27437
Milahane Fenoarivo,active,create,8695ffea-5697-4f45-844d-e3a106ebeb23,,f8f6820f-96eb-4999-82ec-8b809cff94de,Site Communautaire,site_communautaire,5,Building,bu,,
Milanja,active,create,b6c9243d-0ebb-4065-85e8-f55df0b09067,,4a4c7fe2-5003-44c2-b405-2d5850b612a3,Water Point,water_point,5,Building,bu,,
Milenaka,active,create,0e86353f-5459-4bc3-ab55-b71d644aed90,,d32b989c-69a4-4e30-9c15-2d4f701150dd,Water Point,water_point,5,Building,bu,43.58519,-22.84162
Militaire Manajary,active,create,d3dfb78c-3daf-4689-a0e6-79f20d677c2c,,edf88ab2-7614-46e0-bf11-881c4ceeb5e1,CSB2,csb2,5,Building,bu,,
MINISTERE DE L'EAU,active,create,d20c81c9-169d-4800-b7f8-47a68872ad93,,a5e56324-dfbe-4373-827e-772232cfc7e0,Warehouse,warehouse,5,Building,bu,,
MINISTERE DE L'EDUCATION NATIONALE,active,create,9a660cca-dd08-45e4-9d89-2cd38a6b4c5f,,a5e56324-dfbe-4373-827e-772232cfc7e0,Warehouse,warehouse,5,Building,bu,47.517755,-18.917929
Misava,active,create,82b5d581-8239-40c8-ad2d-81f9dab86665,,c88c6d52-991b-4d70-b832-158ee527e297,Water Point,water_point,5,Building,bu,,
Mitanty,active,create,06202538-0db5-41af-82d1-55ba4fe473e6,,813fa1a1-54f7-447d-850f-65b8de8e480d,Water Point,water_point,5,Building,bu,48.00425,-21.72998
Mitanty,active,create,75cf24a3-2a8a-4f6c-8029-0218eb9f691e,,813fa1a1-54f7-447d-850f-65b8de8e480d,Water Point,water_point,5,Building,bu,48.00425,-21.72998
Miteno Centre,active,create,080439ce-e8be-4118-9dda-c1c6b74aaf81,,9ec7eeee-9ba6-4c7d-a93d-5d242d964594,Water Point,water_point,5,Building,bu,47.70036667,-22.63133889
MITSANGANA,active,create,fec960df-f5be-40b7-9bee-0b1d9bdd51f2,,f8f6820f-96eb-4999-82ec-8b809cff94de,Site Communautaire,site_communautaire,5,Building,bu,,
Mitsinjo,active,create,8e6cc091-936d-4df3-ad3d-33a0d9ab7f6c,,5d25d248-4468-4c96-a566-4a539c7928f8,Water Point,water_point,5,Building,bu,45.65247,-24.69284
Mitsinjo,active,create,a05a494e-f26e-4bd1-92c9-0c7439b4e39c,,4342c258-a4f9-4f05-8356-42be448ffec7,Site Communautaire,site_communautaire,5,Building,bu,,
Mitsinjo,active,create,c908ce21-91e5-41c5-a6b5-e2f0b516cc90,,8b79f6e0-d95e-4bf9-bd5c-ecc26834b201,Water Point,water_point,5,Building,bu,45.40457,-24.23439
Mitsoriake,active,create,738a6941-25d6-4c28-8406-2e5f5c9c5fbf,,d18ae17a-faae-4e40-bb4d-540641d494c0,Water Point,water_point,5,Building,bu,45.933682,-25.252491
MITSORIAKE,active,create,1c22ad8b-a273-4e3d-9ece-3347cd45a728,,5c823676-3a79-4633-9d0e-5579ca10794d,Water Point,water_point,5,Building,bu,,
Mokofo,active,create,751c0bf2-d7c2-4fd4-9de3-3a9c1d690ffc,,8a6ef53a-03ec-4e00-a880-75e698c808fe,Site Communautaire,site_communautaire,5,Building,bu,,
Montombe II,active,create,6f6ae908-288c-4c35-ab38-2a733bff6378,,d2953469-fbf7-4ece-a9df-8c1b00a96ede,Site Communautaire,site_communautaire,5,Building,bu,,
Morafeno,active,create,377a63c4-bfbf-4494-aeee-7d8d15f9f2ba,,d0a79494-c31d-4009-86ca-c1decbc3d6d9,Water Point,water_point,5,Building,bu,45.3151,-24.22437
Morafeno,active,create,38785dde-90c2-4371-8e0c-445ede105960,,99e461f0-58a0-47c7-8809-0bcf97ebf301,CSB2,csb2,5,Building,bu,,
Morafeno,active,create,3bf06367-4154-44d4-af15-66cfa99acc93,,3a549dea-f588-417b-a658-77f70cc9a9b4,Water Point,water_point,5,Building,bu,49.44811,-17.49407
Morafeno,active,create,4010362f-a65a-454d-9cbe-d4d0da3d4cc9,,3c9bdc0f-03b9-4ddc-9252-d034e185915b,Water Point,water_point,5,Building,bu,49.16171,-16.56568
Morafeno,active,create,56b9232c-6b82-4ccb-a00c-5edc6f5c810e,,8b79f6e0-d95e-4bf9-bd5c-ecc26834b201,Water Point,water_point,5,Building,bu,45.46025,-24.24892
Morafeno,active,create,716d461b-61ed-466b-bb80-5cb410ea57a3,,3a549dea-f588-417b-a658-77f70cc9a9b4,Water Point,water_point,5,Building,bu,49.456328,-17.484437
Morafeno,active,create,86f1f6c1-2f68-4bae-9904-81d5fb92a735,,42c86929-005d-42d1-8277-50e374ff3337,Water Point,water_point,5,Building,bu,,
Morafeno,active,create,8727fdc1-c7b5-45e1-812f-7f8912a3b267,,d2953469-fbf7-4ece-a9df-8c1b00a96ede,Site Communautaire,site_communautaire,5,Building,bu,,
MORAFENO,active,create,2fd35fa8-bd58-426d-8c4b-c19512b5f9d2,,df16044d-7511-4334-9728-e8735eab9935,Water Point,water_point,5,Building,bu,46.49675,-16.18972222
MORAFENO,active,create,388e07f2-688a-4e9f-bcf9-245f75731e52,,1c4d6025-5d90-4ebe-946c-d5782b33b946,Water Point,water_point,5,Building,bu,46.662835,-16.21849
Morafeno Ambany,active,create,7e4182c2-9676-4d2f-b0e5-60cbc6b5b9e6,,8d3b5f20-903b-4175-9b05-18a57fe3d94c,Water Point,water_point,5,Building,bu,47.32406,-16.30358
Morafeno Ambony,active,create,cf3b390b-2523-4518-b6d9-16243aafc2d8,,8d3b5f20-903b-4175-9b05-18a57fe3d94c,Water Point,water_point,5,Building,bu,47.30211,-16.30092
MORAFENO EST,active,create,7140b67a-f412-4c6b-8d29-a1d3b8bb7c3b,,8d3b5f20-903b-4175-9b05-18a57fe3d94c,Water Point,water_point,5,Building,bu,47.321961,-16.296395
MORAFENO I,active,create,7850815c-8ecd-44c0-986b-2577403dec4a,,8d3b5f20-903b-4175-9b05-18a57fe3d94c,Water Point,water_point,5,Building,bu,,
MORAFENO II,active,create,52a8fdaf-95b1-47da-b173-5e01fa81cc81,,8d3b5f20-903b-4175-9b05-18a57fe3d94c,Water Point,water_point,5,Building,bu,,
Morafeno Mandroso,active,create,0f4a5a8b-cc76-4e49-8e26-10bf37749c88,,1a29f950-a8ed-439c-9d32-b9c2cc1d9bf4,Water Point,water_point,5,Building,bu,45.71389,-24.52583
Morafeno Nord,active,create,839fa24e-1b78-45b4-92f3-48dc02508720,,eff7b5fc-4224-4400-9165-0f3f7733a4a1,Water Point,water_point,5,Building,bu,45.86324,-24.60819
Morafeno Nord,active,create,c1fd6ef0-c45c-47ef-96e7-dafe76fefc3d,,eff7b5fc-4224-4400-9165-0f3f7733a4a1,Water Point,water_point,5,Building,bu,,
MORAFENO OUEST,active,create,3e8cdb67-51d9-4614-8030-4ef23b16a92f,,8d3b5f20-903b-4175-9b05-18a57fe3d94c,Water Point,water_point,5,Building,bu,47.321961,-16.296395
Morafeno Tanandava Nord,active,create,c4b0bd35-bac5-40af-966c-c9fe3b44b538,,4342c258-a4f9-4f05-8356-42be448ffec7,Water Point,water_point,5,Building,bu,45.39044,-24.19251
Morafeno Tanandava Sud,active,create,6fa3be50-fb11-4cc0-979f-1170a47bb487,,4342c258-a4f9-4f05-8356-42be448ffec7,Water Point,water_point,5,Building,bu,45.38607,-24.19477
Morafeno Tsaramandroso1,active,create,986d080b-fa61-4b0c-b187-b910dcffbc82,,5d25d248-4468-4c96-a566-4a539c7928f8,Water Point,water_point,5,Building,bu,45.66113889,-24.32972222
Morafeno Tsaramandroso centre,active,create,036c3c62-6a9d-48a3-9343-3b558853c396,,5d25d248-4468-4c96-a566-4a539c7928f8,Water Point,water_point,5,Building,bu,45.66111111,-24.32294444
Moralonaka,active,create,03916e70-9080-4449-9604-ad800f629c6b,,ac38946a-ff08-4941-ab55-9f25fb818265,Water Point,water_point,5,Building,bu,,
MORALONAKA,active,create,1c1255b2-a388-4436-8b6f-2a10f34e1c29,,6e32ba8a-c7b8-46fe-99f1-c35c65470705,Water Point,water_point,5,Building,bu,,
Moraly,active,create,91c04fea-868e-479f-b6da-dbf6f9cd1493,,f0800714-2873-4583-b79f-cb73f24771c3,Water Point,water_point,5,Building,bu,47.57328611,-23.34793611
Moratody efatsy,active,create,731244a4-13fd-48d7-a68f-155959d7e64e,,bb20d920-ef2d-4d18-8364-201949f3d6df,Water Point,water_point,5,Building,bu,47.609021,-23.114286
Nadrosoa I,active,create,96a9c438-ca39-48af-9fc7-60b9153beeb4,,1a29f950-a8ed-439c-9d32-b9c2cc1d9bf4,Water Point,water_point,5,Building,bu,45.65805,-24.48937
Nagnarena Ankarana,active,create,87467af0-9879-4546-a2d7-3308e974b976,,5d25d248-4468-4c96-a566-4a539c7928f8,Water Point,water_point,5,Building,bu,45.6699,-24.87465
Nagnarena Mahasoa,active,create,5e9b72df-e006-4cb4-bf71-d36e89a9ec51,,1a29f950-a8ed-439c-9d32-b9c2cc1d9bf4,Water Point,water_point,5,Building,bu,45.22797,-24.62675
Nagnarena Mahasoa,active,create,768070fd-53b1-4a78-81ed-974e753ba76c,,1a29f950-a8ed-439c-9d32-b9c2cc1d9bf4,Water Point,water_point,5,Building,bu,45.59383,-24.44317
NAGNARENA MAHASOA,active,create,1ab0f166-803d-43a4-9562-0dc3857f1e9e,,1a29f950-a8ed-439c-9d32-b9c2cc1d9bf4,Water Point,water_point,5,Building,bu,,
Namahoaka,active,create,7b44eb89-bdc2-4401-ad43-5dfb4d6a9dd7,,3a549dea-f588-417b-a658-77f70cc9a9b4,Water Point,water_point,5,Building,bu,49.46200833,-17.5798611
Namahoaka 2,active,create,d2d8544f-6212-47bc-a717-fe0c93ea03d8,,3a549dea-f588-417b-a658-77f70cc9a9b4,Water Point,water_point,5,Building,bu,49.46201,-17.57986
Namanona,active,create,6fa64d59-90d1-44f9-b431-8f79726332f2,,bbf51669-1e92-493b-bc33-395378f2943d,Water Point,water_point,5,Building,bu,46.68711306,-25.17403889
Namantoana,active,create,b06d62a2-a37a-4cb4-a23b-51655159c182,,f8a96f70-3460-4957-bb58-146714a1de08,Water Point,water_point,5,Building,bu,49.61136,-16.83875
Namelomapia bas,active,create,2314dfb3-cea8-4ca3-99f0-9b2e183ae9b2,,c88c6d52-991b-4d70-b832-158ee527e297,Water Point,water_point,5,Building,bu,,
Namohora,active,create,7e473bd5-1b04-4315-8fea-63e397b6b803,,17b7a3d4-1a5e-4cda-8f6a-625da68b920a,Water Point,water_point,5,Building,bu,47.5322,-23.36568
Namohora,active,create,db432ad7-51f5-45bd-811f-328b863bbea4,,faa85abb-bd9b-495f-8549-5efba48da916,Water Point,water_point,5,Building,bu,47.55464722,-23.34285278
NAMOIA,active,create,e66d6c41-ca14-4033-831e-1e2e8556bc43,,409bb851-c200-4643-b590-5f0b2005e8d2,Site Communautaire,site_communautaire,5,Building,bu,,
Namorona,active,create,22c4c3fa-c793-4410-9d62-b398a629aeff,,3c2fc71a-8d34-4395-9e88-8379a23e109d,CSB2,csb2,5,Building,bu,,
NAMOTAHA,active,create,15808f74-41a8-42c1-97cf-4bb19202755f,,ec2ae9c9-14fb-49fb-860f-ecc5f82c0a43,Site Communautaire,site_communautaire,5,Building,bu,,
NANDROSOA I,active,create,e465ec36-5986-40a6-ab9a-30b5470c75a5,,1a29f950-a8ed-439c-9d32-b9c2cc1d9bf4,Water Point,water_point,5,Building,bu,,
Nanohofa bas,active,create,fce8ec4d-8a59-499a-b409-b63e711a7878,,437a9492-22a6-4e12-9d03-efe8f0fa03b0,Water Point,water_point,5,Building,bu,43.83239722,-24.3845778
Nato,active,create,2b7e01be-d68b-46b2-b9f2-c6748b716daa,,5bcb6825-4d99-49d7-8cbb-405656b405a0,CSB2,csb2,5,Building,bu,,
Natomasy,active,create,a2909604-8f48-4bec-a69c-29c0c4c251b9,,81fbdd83-3e3b-42a3-92c8-0c8a526a18d2,Site Communautaire,site_communautaire,5,Building,bu,,
Nihaonana Centre,active,create,305bc382-45b9-40cc-9d89-fb993bbecaed,,4e2e4b03-3b07-4146-9eb3-5fcecd99e4de,Water Point,water_point,5,Building,bu,47.99328611,-21.74059167
Nihaonana CSB,active,create,e29e7b45-5eb5-40cd-9d91-45ddc261dc93,,4e2e4b03-3b07-4146-9eb3-5fcecd99e4de,Water Point,water_point,5,Building,bu,47.99471944,-21.74255833
Nikoly,active,create,df21fb18-caba-441e-aaee-afa19a519919,,409bb851-c200-4643-b590-5f0b2005e8d2,Water Point,water_point,5,Building,bu,45.43217,-25.38473
Nisoa,active,create,6cfa6184-0977-4943-a629-ddb110098ef6,,5e7fb2d0-10c3-47fc-88ec-561122e106c8,Water Point,water_point,5,Building,bu,,
NISOA (AEPP),active,create,84d97be8-27f8-421f-904a-6c62faf90108,,5e7fb2d0-10c3-47fc-88ec-561122e106c8,Water Point,water_point,5,Building,bu,44.02114,-24.825453
NOSIALA,active,create,10c7b98f-5dde-42da-b848-a9de1091979e,,cbd7ab07-5855-4335-85fb-7514bd0c8bab,Site Communautaire,site_communautaire,5,Building,bu,,
Nosibe,active,create,49a0c722-8cbd-4aeb-995f-8d2a20d9b52d,,eadf078b-2054-4723-8af1-5d16c18ac240,Water Point,water_point,5,Building,bu,49.27137,-17.43197
Nosibe,active,create,649bc8a6-e483-4f7e-90b5-badc7d0a1ff3,,eadf078b-2054-4723-8af1-5d16c18ac240,Water Point,water_point,5,Building,bu,49.27144,-17.43192
Nosiomby,active,create,c6b02fc3-819c-4c0c-9b4c-6b5acc08fd66,,e10fbb95-b55a-4deb-be46-e9a3bd42de28,Water Point,water_point,5,Building,bu,47.62231,-23.55442
NOSIOMBY,active,create,866ac211-6d72-4fdb-adee-bcb77e476986,,e10fbb95-b55a-4deb-be46-e9a3bd42de28,Water Point,water_point,5,Building,bu,47.622306,-23.554417
Nosy Be,active,create,0ae2c5f5-c486-4f20-bdef-d2107bb2d1b9,,066f9399-0022-4e2c-abcb-1d26f835710e,Water Point,water_point,5,Building,bu,47.59335,-23.59608
ONG SAHI Marovoay,active,create,292002f0-d59a-4bf6-b4b5-f95a0998c35d,,c2df9c51-6629-4756-ab37-d58d51c02b30,Warehouse,warehouse,5,Building,bu,46.643543,-16.107424
Onjatsy,active,create,72c71076-0f79-411a-849a-a78456c30648,,c129684f-8a39-489f-a179-eb11967da763,CSB2,csb2,5,Building,bu,,
PAM Toamasina I,active,create,3e775f0a-43cb-4e54-8d7a-5006d6858b17,,5639a70e-c3ee-4838-b33c-c2e1d3d57e4b,Warehouse,warehouse,5,Building,bu,49.397093,-18.172637
Parcelle I (Devant Roger),active,create,96d0d747-dea1-4fc8-8bae-473af656c017,,68f938ca-5f90-44da-9cd5-f786622f1e30,Water Point,water_point,5,Building,bu,49.47919,-17.09216
Parcelle I (Fjkm),active,create,e0e9d5e8-ecfa-410a-8852-f778230154fd,,68f938ca-5f90-44da-9cd5-f786622f1e30,Water Point,water_point,5,Building,bu,49.47672,-17.09023
Parcelle Ii Est,active,create,5824701a-5497-4c9e-8811-211c9ae22181,,3a549dea-f588-417b-a658-77f70cc9a9b4,Water Point,water_point,5,Building,bu,49.45258,-17.48906
Parcelle II (FJKM),active,create,84e94de9-e194-443b-9214-4b8fc6ea532e,,68f938ca-5f90-44da-9cd5-f786622f1e30,Water Point,water_point,5,Building,bu,49.47672,-17.09023
Parcelle Iii (Devant Natalie),active,create,3773bc3e-a8c1-4d64-a224-a2ae293785b8,,68f938ca-5f90-44da-9cd5-f786622f1e30,Water Point,water_point,5,Building,bu,49.477,-17.09143
Parcelle II Ouest 1,active,create,13423926-327b-4fdc-8216-866390c3c02a,,3a549dea-f588-417b-a658-77f70cc9a9b4,Water Point,water_point,5,Building,bu,49.45038,-17.48845
Parcelle II Ouest 2,active,create,8dfcc2ab-6133-4b62-bca9-489dbaf4ba51,,3a549dea-f588-417b-a658-77f70cc9a9b4,Water Point,water_point,5,Building,bu,49.44871,-17.49159
Parcelle Ii (Prsident Fkt),active,create,e62e0df6-a0c3-4ea8-a515-2e3846ee6eed,,68f938ca-5f90-44da-9cd5-f786622f1e30,Water Point,water_point,5,Building,bu,49.47486,-17.09197
Parcelle Iv,active,create,224047ec-4411-4e7b-be39-8348f2e34c42,,68f938ca-5f90-44da-9cd5-f786622f1e30,Water Point,water_point,5,Building,bu,49.47519,-17.09054
Parcelle Iv (Ara-Pilazantsara),active,create,a347fc40-494d-49b2-8883-7bc54b81b053,,68f938ca-5f90-44da-9cd5-f786622f1e30,Water Point,water_point,5,Building,bu,49.47348,-17.09142
parcelle IV(Lavapako),active,create,154f8caf-d948-4858-ba7d-5f74554f4e53,,68f938ca-5f90-44da-9cd5-f786622f1e30,Water Point,water_point,5,Building,bu,49.47519,-17.09054
Parcelle Iv (Maire),active,create,d52833e3-59d6-4d32-9b44-e1b086dde467,,68f938ca-5f90-44da-9cd5-f786622f1e30,Water Point,water_point,5,Building,bu,49.47909,-17.09129
Parcellev,active,create,ff1bd8b5-93c4-4cc1-aea5-baddcd161a5b,,f8a96f70-3460-4957-bb58-146714a1de08,Water Point,water_point,5,Building,bu,49.618,-16.87
Parcelle V (Ambodiletchi),active,create,6e1440da-4ccc-4e63-8d74-b01af106b77b,,68f938ca-5f90-44da-9cd5-f786622f1e30,Water Point,water_point,5,Building,bu,49.47349,-17.09228
Parcelle V (Ara-pilazantsara),active,create,cbc06288-1f95-46ea-aebd-78584b0cf4c2,,68f938ca-5f90-44da-9cd5-f786622f1e30,Water Point,water_point,5,Building,bu,49.47348,-17.09142
Parcelle Vi (Farany Ambony),active,create,07f185fe-470c-48b0-ad08-f02de1d1362d,,68f938ca-5f90-44da-9cd5-f786622f1e30,Water Point,water_point,5,Building,bu,49.47188,-17.0937
Parcelle VI(Tsena),active,create,e7fdc0fe-727c-4e4f-9980-d543e16a1aa9,,68f938ca-5f90-44da-9cd5-f786622f1e30,Water Point,water_point,5,Building,bu,49.47427,-17.09364
Pdt Fokontany,active,create,c4ecb23f-5831-484a-8fef-1569232e31a7,,05298366-d8c0-4f72-9f10-9669e8f06b0b,Water Point,water_point,5,Building,bu,49.74444,-16.69
Pelaraike,active,create,26781a59-6c41-4474-8f77-2316663274d4,,5e2597af-1eb0-43db-a53c-f2e0aa3222a1,Water Point,water_point,5,Building,bu,45.16868,-24.53592
Petite Vitesse,active,create,c03f8a66-c8e9-4fa2-94be-50edb88580ef,,8f127dd1-8e58-4d53-b273-bf8945e3e43a,Water Point,water_point,5,Building,bu,47.5347778,-18.906278
Pinjo I,active,create,3187558a-e08a-48b3-842a-5e28b4d2e397,,d02f2a46-3b1c-4474-8bf8-a6ad8d680093,Water Point,water_point,5,Building,bu,44.90409,-24.43952
Pinjo Ii,active,create,f7f9a91c-4d6d-4f10-8965-cb0c69344e38,,d02f2a46-3b1c-4474-8bf8-a6ad8d680093,Water Point,water_point,5,Building,bu,44.92123,-24.43862
Point de service TEST,active,create,4298b45c-9dd1-4838-9667-9304df0962ae,,53b855c9-71de-44fb-a7b8-6dea302d2ccc,EPP,epp,5,Building,bu,,
Pont Chauffeur Atsinanana Epp,active,create,455106ac-6f2f-4cb9-85bd-e85c1e40d21a,,7174ae50-4d3d-4fd1-a906-4fab680bede5,Water Point,water_point,5,Building,bu,46.81164,-16.27756
Presco Ambaibo,active,create,0218fb00-957f-4bd3-a7e6-6bc3e98a248c,,5aad6046-70a7-4c2c-8229-9845f7cd84c5,EPP,epp,5,Building,bu,,
Presco Ifaho,active,create,d064e959-2464-4584-aa1c-5b78ee32ab58,,5aad6046-70a7-4c2c-8229-9845f7cd84c5,EPP,epp,5,Building,bu,,
Prescolaire Ambolomanjaka,active,create,c3a3b713-9654-4ce8-98d6-63a1cc2833a5,,44fdd833-7d80-465b-916a-48e47588e441,EPP,epp,5,Building,bu,,
Prescolaire Vohibazimba,active,create,e55beaaa-867a-4cc4-ae5c-88a915af7c3b,,86882426-0907-435e-91b4-54eec60989f7,EPP,epp,5,Building,bu,,
Radabetsimivaky,active,create,b67c766c-6564-4508-be5c-389ff347dfaf,,44757477-a950-4af9-b9cd-a68ea0e5bcc5,Site Communautaire,site_communautaire,5,Building,bu,,
Ranomena,active,create,07dc63e6-810b-449d-80ce-1c3a2686a540,,ba2ac9bc-d750-4d66-8a12-c5d3f651267d,Water Point,water_point,5,Building,bu,47.265317,-23.422728
Ranomena,active,create,47b7be07-6b5b-4105-80fb-5becdea7146b,,3a549dea-f588-417b-a658-77f70cc9a9b4,Water Point,water_point,5,Building,bu,49.37203,-17.45878
Ranomena,active,create,6c8697a6-0cb2-4fef-ae27-a403728b5040,,3a549dea-f588-417b-a658-77f70cc9a9b4,Water Point,water_point,5,Building,bu,49.37213,-17.45873
Ranopiso,active,create,e15861ac-3a56-4fdf-b0a4-4a7dbba15418,,e10efd4e-f85a-4d38-9fd9-b88369d3a367,Water Point,water_point,5,Building,bu,46.68708,-25.00433
Ranopiso Centre,active,create,86e1e10c-82d4-4dd4-996a-1d679bcf7538,,e10efd4e-f85a-4d38-9fd9-b88369d3a367,Water Point,water_point,5,Building,bu,46.68708333,-25.00433333
Rantolava,active,create,86e35959-0177-4bf1-b2ac-565d9013a5ac,,9e0dac3f-285e-48a9-b708-e3b8b2c274e0,Water Point,water_point,5,Building,bu,49.426952,-17.253924
Rantolava,active,create,dff7e586-e31a-4fff-bff4-b453dc89833e,,9e0dac3f-285e-48a9-b708-e3b8b2c274e0,Water Point,water_point,5,Building,bu,,
RENOSY ANTSEVATSEVA,active,create,b6feeb33-29b2-4db9-99c7-f55d30e8e674,,84a0d267-b156-44f8-8b14-dccc838762ea,Water Point,water_point,5,Building,bu,,
Rerango,active,create,25ee88bb-c1a9-4418-8bba-86750ebfa1bd,,8746b844-7ee5-4c7c-9cc1-60fc3c529b15,Site Communautaire,site_communautaire,5,Building,bu,,
Reromotse,active,create,89f1431b-3e19-41cd-b2c2-d3693ab3ef23,,5e2597af-1eb0-43db-a53c-f2e0aa3222a1,Water Point,water_point,5,Building,bu,45.2594,-23.87008
Riandampy,active,create,3158293c-5dfb-40c0-bbb6-324f1bfa15b5,,6eb5c944-e2c7-4eac-93a9-ad7996924fce,Site Communautaire,site_communautaire,5,Building,bu,,
Riandampy,active,create,7ead92eb-5f8a-461c-bab9-6f358d37f9bc,,cd1ecae6-301d-4964-96d9-c07c80710e5c,Site Communautaire,site_communautaire,5,Building,bu,,
Saboko,active,create,0bd3e774-4a59-482e-b480-379255baa326,,8746b844-7ee5-4c7c-9cc1-60fc3c529b15,Site Communautaire,site_communautaire,5,Building,bu,,
Safanjanga,active,create,58da9f7e-71ae-4897-a085-b8c5ad24bbbf,,cd0c8f6f-d2ef-4dbd-9712-5ccc36c1e015,Water Point,water_point,5,Building,bu,49.848156,-16.435723
SAF FJKM Bureau,active,create,0f490c7c-bf33-4780-b31a-4edead0b971d,,7da9bcd5-9919-42eb-a771-4b02ad9ac48a,Warehouse,warehouse,5,Building,bu,48.017782,-22.153474
SAF FJKM Manakara,active,create,0ae07567-4638-4b57-b588-a77b6df8c4dc,,7da9bcd5-9919-42eb-a771-4b02ad9ac48a,Warehouse,warehouse,5,Building,bu,48.017596,-22.153707
Saf Fjkm Nosy Varika,active,create,ded18789-e001-4078-a293-afb3685573e0,,cbba297f-18ae-440d-be70-b598c4b61683,CSB2,csb2,5,Building,bu,,
Sahajinja I,active,create,20d2b5bf-adea-4d4d-889b-9ed902d8584f,,3c9bdc0f-03b9-4ddc-9252-d034e185915b,Water Point,water_point,5,Building,bu,49.28385,-16.64149
Sahajinja II,active,create,c22c3919-0996-403a-9d4c-282020f6b985,,3c9bdc0f-03b9-4ddc-9252-d034e185915b,Water Point,water_point,5,Building,bu,49.28428,-16.64364
Sahajinjo,active,create,e98f873e-46ea-4372-9536-f14897e60908,,79d35231-617d-4a57-83e6-fefe79351454,Water Point,water_point,5,Building,bu,46.02986944,-24.46880833
Sahaka Ambodipont Sud,active,create,74d74f73-6a45-4f51-85ab-6fd35062137f,,15e3dc94-d0c9-43f1-bbc5-4f3b19883f0f,Water Point,water_point,5,Building,bu,49.54889,-17.00322
Sahalava,active,create,5af87d78-12dd-48b5-a9d0-16c2708cb1dc,,76e584f8-4122-49e2-a7e1-bbab17098cc5,CSB2,csb2,5,Building,bu,,
Sahamalany I,active,create,6af1eccc-ca91-4a90-a1c4-b8ce1f89e412,,3a549dea-f588-417b-a658-77f70cc9a9b4,Water Point,water_point,5,Building,bu,49.41778,-17.45556
Sahamalany I,active,create,736a3e63-85c3-4c77-8c40-d2f84b21f696,,3a549dea-f588-417b-a658-77f70cc9a9b4,Water Point,water_point,5,Building,bu,49.41781,-17.45558
Sahamalany Ii,active,create,5eb908a8-a8bf-40dc-be18-e1275e99cfdf,,3a549dea-f588-417b-a658-77f70cc9a9b4,Water Point,water_point,5,Building,bu,49.42065,-17.45437
SAHANINJO,active,create,6c84410d-a281-42dc-856e-8782c65e35b8,,79d35231-617d-4a57-83e6-fefe79351454,Water Point,water_point,5,Building,bu,,
Saharoza,active,create,1e9f92f2-d230-4ac0-88c7-2df155523fe2,,4fa8031b-51a6-49a8-ac01-8dce533d58d0,Water Point,water_point,5,Building,bu,47.80113056,-22.90898056
Saharoza Maroroka,active,create,56144400-cd8c-4006-81d6-06ff2678e88d,,4fa8031b-51a6-49a8-ac01-8dce533d58d0,Water Point,water_point,5,Building,bu,47.801131,-22.908981
Sahasoa,active,create,283d6453-ffc0-41c9-bf79-acbad7b7b57d,,f8a96f70-3460-4957-bb58-146714a1de08,Water Point,water_point,5,Building,bu,49.60753,-16.83089
Sahateza,active,create,0f6f33af-94d0-4d78-8dc2-3ff50b6d2cba,,3c9bdc0f-03b9-4ddc-9252-d034e185915b,Water Point,water_point,5,Building,bu,49.21036,-16.54338
Sahavary P1,active,create,3f1dde97-33d2-4f3e-8aa9-2794e256630f,,3a549dea-f588-417b-a658-77f70cc9a9b4,Water Point,water_point,5,Building,bu,49.349,-17.46519
Sahavary P3,active,create,df7d1759-1c47-4861-9928-bf0774ca0e1d,,3a549dea-f588-417b-a658-77f70cc9a9b4,Water Point,water_point,5,Building,bu,49.34589,-17.46519
Sahinindro,active,create,38234272-1fee-4247-b892-8f9d9c992fed,,79d35231-617d-4a57-83e6-fefe79351454,Water Point,water_point,5,Building,bu,,
SAINT JOSEPH,active,create,d5b2a4bf-9292-4c18-9fef-76c5d59cc3cb,,7da9bcd5-9919-42eb-a771-4b02ad9ac48a,Ecole priv,ecole_priv,5,Building,bu,,
Saint Vincent de Paul Beloha,active,create,c86f2142-3dbe-44db-95bb-0d98e12195c2,,45080bdf-d7cf-4745-b19b-f06c4dac96c0,CSB2,csb2,5,Building,bu,45.0576,-25.1727
Sakafia,active,create,3194c53d-1868-430d-abf4-d7949ad29552,,55d60ad9-07f3-42c7-b2c2-64b6840ad748,Water Point,water_point,5,Building,bu,45.99697,-24.21144
Sakafia,active,create,5abc89e0-ecf8-4cda-ad8c-211aa9062c14,,55d60ad9-07f3-42c7-b2c2-64b6840ad748,Water Point,water_point,5,Building,bu,45.996972,-24.211444
Sakafia Etsila,active,create,45a721d7-9b01-4590-8167-e110e8349657,,55d60ad9-07f3-42c7-b2c2-64b6840ad748,Water Point,water_point,5,Building,bu,,
Sakamasay,active,create,da1182ba-5d64-4bdf-bd1d-6bf7b6f946c3,,ced122ee-d3d8-48e1-bfe3-85799e6f0bb4,Water Point,water_point,5,Building,bu,,
SAKAMASY,active,create,edfa1be8-9052-4c2d-9b39-be6dc741b692,,edd7bc75-fc97-4748-840c-2fc554322284,Site Communautaire,site_communautaire,5,Building,bu,,
Sakambala,active,create,37dc37eb-4a26-4d97-93ef-64b932377843,,c149b572-ebc8-460b-8709-a7335b536d5f,Water Point,water_point,5,Building,bu,47.69968333,-22.54450278
Sakaraty,active,create,1c9f44c1-d2cf-4d9d-b191-238272983659,,bfc47a53-c417-4b92-b394-f669854729ec,Water Point,water_point,5,Building,bu,45.36494444,-24.87733333
Sakaraty,active,create,356e82b5-ee60-4bf4-904e-4a38447994bf,,bfc47a53-c417-4b92-b394-f669854729ec,Site Communautaire,site_communautaire,5,Building,bu,,
Sakaraty,active,create,49dcac88-cbdd-4614-83d6-ee13ff2b09d8,,bfc47a53-c417-4b92-b394-f669854729ec,Water Point,water_point,5,Building,bu,,
Sakaraty I,active,create,4c0791e2-6bb6-4875-b379-33ad46c14a41,,5e2597af-1eb0-43db-a53c-f2e0aa3222a1,Water Point,water_point,5,Building,bu,45.18983,-24.1928
Sakaraty Ii,active,create,24ce9f28-4930-44f6-8fc7-494bd8ef3422,,5e2597af-1eb0-43db-a53c-f2e0aa3222a1,Water Point,water_point,5,Building,bu,45.19605,-24.54438
Sakariake,active,create,c3c6d55a-9212-4850-aac4-b3f94c7197c3,,437a9492-22a6-4e12-9d03-efe8f0fa03b0,Water Point,water_point,5,Building,bu,44.00293333,-24.826175
Sakoamasy,active,create,828c0b6b-e932-4353-967a-6a0d5689fbf0,,e9beb16a-fb0b-4aa2-97b5-9668f323af7b,Water Point,water_point,5,Building,bu,45.71202,-24.19183
Sakoamasy Ii,active,create,2f8d0fd2-7a39-443e-8a59-399a24dbb3f5,,e9beb16a-fb0b-4aa2-97b5-9668f323af7b,Water Point,water_point,5,Building,bu,45.22775,-24.0611
Sakoampolo Sud 2,active,create,e79e09f5-51b2-4831-84ad-bf53a129586c,,e9beb16a-fb0b-4aa2-97b5-9668f323af7b,Water Point,water_point,5,Building,bu,45.67620611,-24.815295
Sakoandro,active,create,3d56afc2-d138-4750-bba6-209e65205b75,,5d25d248-4468-4c96-a566-4a539c7928f8,Water Point,water_point,5,Building,bu,45.38298389,-24.10030694
Sakoandroa,active,create,2370cd9a-21c0-4385-ad72-b6df5f79003b,,eff7b5fc-4224-4400-9165-0f3f7733a4a1,Water Point,water_point,5,Building,bu,45.85177,-24.28702
SALFA Antanimora Sud,active,create,449345ad-4b6c-40eb-880a-b3662ef14954,,d18ae17a-faae-4e40-bb4d-540641d494c0,CSB2,csb2,5,Building,bu,45.6589,-24.8141
Salfa Manambaro,active,create,57472868-23d8-4923-83c7-fe2d56d5443f,,09b3b46f-71a1-45f7-9ab4-b93e449e2205,CSB2,csb2,5,Building,bu,46.994844,-25.030408
SALFA Toliara,active,create,7e8ab1ef-b2ce-429a-a1b8-e4b56a7d2235,,c4d59d0a-7b64-43c0-8df8-8fa1082261ba,CSB2,csb2,5,Building,bu,43.6714127,-23.352899
Sambalahy,active,create,2e10b644-47b4-4c04-9796-d73c95a1131c,,a6b2e537-03d2-48d5-965a-c80ac9e49e1b,Water Point,water_point,5,Building,bu,47.59079,-23.31553
Sambalahy,active,create,4e728349-d59d-456b-9868-aeddb4ae5779,,f68b7052-c16f-4d64-94a7-f316153ee7e8,Water Point,water_point,5,Building,bu,46.04721889,-23.15295806
Sambalahy,active,create,8fa84dfb-b911-44b8-9fc5-b3277d15a437,,d31e73a7-c487-44dc-8a32-d70ac572ad81,Site Communautaire,site_communautaire,5,Building,bu,,
Sambolaza 1,active,create,2a182f5d-ca54-4377-8ec4-7cd458c956cf,,3a549dea-f588-417b-a658-77f70cc9a9b4,Water Point,water_point,5,Building,bu,49.38712,-17.46523
Sambolaza 1,active,create,31aaccfc-7f71-4cb8-80c2-99089627efbb,,3a549dea-f588-417b-a658-77f70cc9a9b4,Water Point,water_point,5,Building,bu,49.38714,-17.46519
Sambolaza 2,active,create,5340895b-edc9-4b2c-ac39-9999765ca69a,,3a549dea-f588-417b-a658-77f70cc9a9b4,Water Point,water_point,5,Building,bu,49.389,-17.46372
Sambolaza 2,active,create,5e5b3e46-15ec-47d5-9e24-88fb2a38521e,,3a549dea-f588-417b-a658-77f70cc9a9b4,Water Point,water_point,5,Building,bu,49.389,-17.46366
Sampeza,active,create,a0533dee-53de-41eb-9086-9ea681612dc9,,45080bdf-d7cf-4745-b19b-f06c4dac96c0,Water Point,water_point,5,Building,bu,45.0224,-25.20062
Sampeza,active,create,d12aa82a-7ce4-452d-b1f2-b8b98c242a0e,,45080bdf-d7cf-4745-b19b-f06c4dac96c0,Site Communautaire,site_communautaire,5,Building,bu,,
Sandravinany Lakilasy,active,create,8a676c6b-7450-45c1-bfe6-e24103b088f7,,954e466b-bc6a-4d98-9bdb-00a839550a45,Water Point,water_point,5,Building,bu,47.43755,-24.04248
Sandrohy,active,create,1cbfdb21-d455-4504-b58c-f9700a3021c3,,bfb2c9de-1767-4676-ac0a-104c01092604,CSB2,csb2,5,Building,bu,,
Sarilasy,active,create,1d97743a-7b18-4c57-8fb8-e3fbfb456ced,,d2df7eb3-2f4a-4aa0-a63d-b3c1184a26e7,Water Point,water_point,5,Building,bu,47.45744444,-22.739
Sarimiala,active,create,cb5f3aeb-315b-4cc8-9018-98e5cc746d88,,3a7d8ffc-f33a-4560-8ded-561214de9e13,Water Point,water_point,5,Building,bu,47.68018,-22.53178
SARINA II,active,create,fb2ba3f0-2f62-4f74-b925-d3931a539d96,,bb6c3561-a7b7-474b-a906-a5e4659c0dff,Water Point,water_point,5,Building,bu,48.51696667,-20.52525
Sarisambo,active,create,245950d8-d51e-4dc5-ad0a-cdbae7b143f5,,037f61e0-6af0-4530-8ce2-63124eba2a9b,Water Point,water_point,5,Building,bu,45.47455,-24.32916
Sarodrano,active,create,0dceaeb7-331f-4c1d-ae26-64d459cbdfa6,,08a61379-f59c-415b-bc5b-b03d941a9787,Site Communautaire,site_communautaire,5,Building,bu,,
SARODRANO,active,create,b8fd8d7c-34e0-4b4f-aa07-d8a9994a8719,,a6fe0fd7-79e8-41ed-b5a4-2be45df7f47c,Water Point,water_point,5,Building,bu,,
Sarotsetay Bas,active,create,3e75a31b-768c-4e3d-bedd-6589e76b5d48,,2e0f142a-d4e4-4d49-bb85-d88f3fb60663,Water Point,water_point,5,Building,bu,45.04988,-24.43113
Sasavisoa,active,create,14b5f424-cd1e-4d30-b128-dfdace78c407,,79b58d2f-f069-41fe-87c5-45f20f3263c9,Water Point,water_point,5,Building,bu,44.63126,-25.11133
Satrapotsy  bas Ankiliroa,active,create,262174b6-254d-4ffd-86e3-23daccd49af9,,4a4c7fe2-5003-44c2-b405-2d5850b612a3,Water Point,water_point,5,Building,bu,,
Satrapotsy bas Est- Ankaramena,active,create,9c5a175e-09a2-4e96-897d-c853545a4e66,,4a4c7fe2-5003-44c2-b405-2d5850b612a3,Water Point,water_point,5,Building,bu,,
Satria,active,create,b9c6aa2f-6290-44b6-a5f1-dc6c6cbf570d,,3e5a2e63-bc73-420c-896b-ab75d06632e8,Water Point,water_point,5,Building,bu,,
SATRY (fkt TSIHOMBE ATSIMONDRANO),active,create,6ae650e1-b61d-4cf3-8eb8-a62c593fd43a,,edd7bc75-fc97-4748-840c-2fc554322284,CSB2,csb2,5,Building,bu,,
Savana Centre,active,create,851c79e7-a64d-4573-b29d-d80c32ac2509,,19c7ad3b-8ce2-4ed4-98ca-af4f565424d8,Water Point,water_point,5,Building,bu,47.89943,-22.39611
Savana Centre,active,create,f7aa3ddd-9bd3-4d32-b0f3-d266e0c170c9,,19c7ad3b-8ce2-4ed4-98ca-af4f565424d8,Water Point,water_point,5,Building,bu,47.89943,-22.39611
Savana Est,active,create,70a2ff2c-e986-4bd3-b8e1-047f0987fa34,,19c7ad3b-8ce2-4ed4-98ca-af4f565424d8,Water Point,water_point,5,Building,bu,47.89943,-22.3961
Savana Est,active,create,9db10edd-30bc-4204-bc61-c58a625849d3,,19c7ad3b-8ce2-4ed4-98ca-af4f565424d8,Water Point,water_point,5,Building,bu,47.89943,-22.3961
Savana Ouest,active,create,9dd3b2c0-ddc3-4231-814f-6093f0ee6a17,,19c7ad3b-8ce2-4ed4-98ca-af4f565424d8,Water Point,water_point,5,Building,bu,47.89943,-22.39611
Savana Ouest,active,create,d2b550ca-7920-4788-b6aa-afb9a3e37bba,,19c7ad3b-8ce2-4ed4-98ca-af4f565424d8,Water Point,water_point,5,Building,bu,47.89943,-22.39611
Savara centre,active,create,552fc6d8-8eed-4fef-a81b-10e7da8b264a,,457c79c3-09a5-4967-abe5-9ba010354d1a,Site Communautaire,site_communautaire,5,Building,bu,,
Savilava,active,create,7ad85dd4-e3de-4d88-be98-16f8956c1900,,d2953469-fbf7-4ece-a9df-8c1b00a96ede,Site Communautaire,site_communautaire,5,Building,bu,,
Savilintotse,active,create,d1b54c8c-5c9c-440a-a187-fa6ae0edb86d,,81fbdd83-3e3b-42a3-92c8-0c8a526a18d2,Site Communautaire,site_communautaire,5,Building,bu,,
Savoa,active,create,b4392b7d-a862-4444-b88e-cb564c8878d1,,8716f270-e924-4c35-8587-440e68237be1,Water Point,water_point,5,Building,bu,,
SDPPSPF Ampanihy,active,create,6ceb57da-92b0-4613-8786-ad5957f9bc8f,,41150233-beb5-4fa9-86a0-66a3606bcef6,MPPSPF,mppspf,5,Building,bu,44.74405,-24.697098
SDPPSPF Bekily,active,create,c25d09ea-bef1-4588-9e06-c1cc89fe0724,,4342c258-a4f9-4f05-8356-42be448ffec7,Warehouse,warehouse,5,Building,bu,,
SDPPSPF Betioky Atsimo,active,create,45587f59-0046-4d8c-a739-671199b6d25b,,700c68ef-f8dc-4f83-9339-037f8ef0c675,DRPPSPF,drppspf,5,Building,bu,,
SDPPSPF Morombe,active,create,7ba54ed3-905d-46e8-9197-3537018fc011,,4d0ebcc0-6477-4d25-9e10-183e06a4a091,SDSP,sdsp,5,Building,bu,,
SDSP Ambilobe,active,create,3eca6646-8158-443a-92f0-d109a10c9486,,9b7e1ddc-1122-455f-9c56-9087783193d6,SDSP,sdsp,5,Building,bu,49.048019,-13.196747
SDSP Amboasary Sud,active,create,a75dc3df-ae6a-4060-96f2-88af97a2f061,,124696f9-87ed-4178-ba7c-d100268dddba,SDSP,sdsp,5,Building,bu,46.381981,-25.04052
SDSP AMBOVOMBE,active,create,f6207784-3681-4471-8c6b-c880d1af58c3,,f8f6820f-96eb-4999-82ec-8b809cff94de,SDSP,sdsp,5,Building,bu,,
SDSP AMPANIHY,active,create,daeb845d-958a-4ef9-9b01-d56f0318cf6c,,41150233-beb5-4fa9-86a0-66a3606bcef6,SDSP,sdsp,5,Building,bu,,
SDSP ANKAZOABO,active,create,7600a96b-6b72-46a2-bb74-18af379c43fe,,0daeae6e-7ac0-475c-b16a-ca693a2becb2,SDSP,sdsp,5,Building,bu,,
SDSP Antalaha,active,create,43443efc-1e0e-49cb-a531-0dda716e7ddc,,98779d59-606c-4f5d-845b-f9f0c9e45c00,SDSP,sdsp,5,Building,bu,,
SDSP BEFOTAKA,active,create,4cd7ef55-68af-433d-adc0-3282b65a81e9,,fd6d4d35-d3e6-4c22-b484-6bc71f13ae09,SDSP,sdsp,5,Building,bu,47.4833,-23.8
SDSP BEKILY,active,create,6ff661df-bedf-4880-93ca-7c2c16e8659a,,4342c258-a4f9-4f05-8356-42be448ffec7,SDSP,sdsp,5,Building,bu,,
SDSP BELOHA,active,create,66bd1374-8248-45e8-b385-7c0b902c7f62,,45080bdf-d7cf-4745-b19b-f06c4dac96c0,SDSP,sdsp,5,Building,bu,,
SDSP BENENITRA,active,create,35d76d68-534c-4def-a734-4f66a094bfdc,,7d36fdd0-1cbc-4ace-bd4a-d96dd630e6d7,SDSP,sdsp,5,Building,bu,,
SDSP BEROROHA,active,create,e47920cb-8f2d-4d27-8054-14e78fd3d754,,b0b75bc3-3d2d-4024-9c82-e6a48874899c,SDSP,sdsp,5,Building,bu,,
SDSP BETIOKY ATSIMO,active,create,fd3a0249-ad3d-45af-9a09-ddeb0eed1659,,700c68ef-f8dc-4f83-9339-037f8ef0c675,SDSP,sdsp,5,Building,bu,,
SDSP Betroka,active,create,95459aa4-ad37-4545-9948-b442d2be4dd8,,cd1ecae6-301d-4964-96d9-c07c80710e5c,SDSP,sdsp,5,Building,bu,46.09109,-23.273655
SDSP BRICKAVILLE,active,create,598e00a2-d399-40bc-b4c6-ac1dbaa4018a,,a0f71711-e415-4eb7-a5a1-5771c9709049,SDSP,sdsp,5,Building,bu,,
SDSP FARAFANGANA,active,create,14073154-d9e0-405b-af8c-6103f93ffa05,,69191346-9a9a-4dc1-8152-bfd50185cf12,SDSP,sdsp,5,Building,bu,,
SDSP Fenerive est,active,create,0cd47fa0-4bc2-40a6-a60c-5ed8e8881cdd,,5ec5a49d-fb6a-4c5b-a2fb-2182671ffa83,SDSP,sdsp,5,Building,bu,,
SDSP IFANADIANA,active,create,2438b4e0-9f0e-447d-882d-8bd0a636e502,,7d0c14f2-b640-4dd9-8fe8-ea832cd858db,Warehouse,warehouse,5,Building,bu,,
SDSP IKONGO,active,create,edff1c95-b760-4ceb-a9db-0928603aa936,,0791ade5-7ea2-4216-9e4f-c2e945b7b158,Warehouse,warehouse,5,Building,bu,47.4333,-21.8833
SDSP Maevatanana,active,create,9c5dde29-6fe2-4ef7-8abe-22dd243d7c0f,,2762b783-b5fd-4f02-86e7-682a713b9b7f,SDSP,sdsp,5,Building,bu,46.83028,-16.94614
SDSP Mahajanga I,active,create,d64a428e-dfdf-4a53-9585-cf0f5fdbfaa0,,a80de6c1-9347-4555-b53b-aa8141499f52,SDSP,sdsp,5,Building,bu,,
SDSP MANAKARA,active,create,84f1c11c-3e9f-4d16-9f9b-9b872bd65553,,7da9bcd5-9919-42eb-a771-4b02ad9ac48a,SDSP,sdsp,5,Building,bu,48.0203,-22.1403
SDSP MANANJARY,active,create,a70ac4d3-8604-4238-aed4-7f0c3bbdd806,,31344464-306c-4f4a-a70d-43ffbdfa19b2,SDSP,sdsp,5,Building,bu,,
SDSP MAROANTSETRA,active,create,0482e8f1-2482-4c94-b87a-8842c5e59718,,fd999859-3d7f-4624-8f8d-a099fc7dfebe,SDSP,sdsp,5,Building,bu,,
SDSP MAROVOAY,active,create,07f14d6e-258a-43b4-80ab-58f49639a808,,c2df9c51-6629-4756-ab37-d58d51c02b30,SDSP,sdsp,5,Building,bu,,
SDSP MIDONGY ATSIMO,active,create,9ce48e8a-9924-441f-91d0-f92ac97be041,,fb9692ef-8243-4a10-8bda-2c970fba1f56,SDSP,sdsp,5,Building,bu,47.2477,-23.4973
SDSP MOROMBE,active,create,a535bd45-cb41-4ed5-987c-f210cf1551d9,,4d0ebcc0-6477-4d25-9e10-183e06a4a091,SDSP,sdsp,5,Building,bu,,
SDSP NOSY VARIKA,active,create,b15dca57-92a5-46ec-a512-bb1b52ef778c,,cbba297f-18ae-440d-be70-b598c4b61683,Warehouse,warehouse,5,Building,bu,,
SDSP SAKARAHA,active,create,6bf26d81-69b3-4c8d-a53b-535d3b023e48,,700c68ef-f8dc-4f83-9339-037f8ef0c675,SDSP,sdsp,5,Building,bu,,
SDSP Sambava,active,create,0293af3a-19ee-465d-9e0b-facc1b195425,,ce068d74-4f09-44e9-853e-0b4115f6df47,SDSP,sdsp,5,Building,bu,,
SDSP Taolagnaro,active,create,331e2d1a-8bce-4734-a795-655d721477e2,,09b3b46f-71a1-45f7-9ab4-b93e449e2205,SDSP,sdsp,5,Building,bu,,
SDSP TOAMASINA I,active,create,fc06e69c-27cb-4b92-b6da-b7e8dcf1d050,,5639a70e-c3ee-4838-b33c-c2e1d3d57e4b,SDSP,sdsp,5,Building,bu,,
SDSP TOLIARA I,active,create,c783d8a2-bfb2-459d-91d4-110795e410be,,c4d59d0a-7b64-43c0-8df8-8fa1082261ba,SDSP,sdsp,5,Building,bu,,
SDSP TOLIARA II,active,create,8ba23ace-bc3e-4b6e-af0e-0703e03dcca1,,c4d59d0a-7b64-43c0-8df8-8fa1082261ba,SDSP,sdsp,5,Building,bu,,
SDSP TSIHOMBE,active,create,8841a5ec-6826-4b19-8ae4-76fdfb4eefee,,edd7bc75-fc97-4748-840c-2fc554322284,SDSP,sdsp,5,Building,bu,,
SDSP VANGAINDRANO,active,create,069b5b48-b281-41a1-afc6-62d241037f21,,e9bfd037-3c2b-4697-b9d8-a5fed6c85641,SDSP,sdsp,5,Building,bu,,
SDSP VATOMANDRY,active,create,eb74c8ef-c0ec-4654-8bd0-3f71b4cc9d50,,c85b3c92-782d-431f-8b26-878e9fd84618,SDSP,sdsp,5,Building,bu,,
SDSP Vohmar,active,create,88f08621-7ff7-42b4-a107-42cdde0b6764,,8ef31067-3223-4784-9355-e642ef1875f8,SDSP,sdsp,5,Building,bu,,
SDSP VOHIPENO,active,create,90f802ec-4ab0-4874-b54c-ef27a3b8e16c,,a04282da-d940-4199-a5af-b79fddf81373,SDSP,sdsp,5,Building,bu,,
SDSP VONDROZO,active,create,1b3f3e02-0298-4d77-8a34-30ac3fa65521,,0aed832e-13f6-4542-bb3f-09e799934325,SDSP,sdsp,5,Building,bu,,
SECTEUR 1 MANDROSOA CENTRE,active,create,49428091-7318-4503-a51e-3d175bd948f8,,c2df9c51-6629-4756-ab37-d58d51c02b30,Water Point,water_point,5,Building,bu,46.72903,-16.073831
Secteur 2 (Est du CSB),active,create,f3e3a97c-f81b-4723-9974-0316b7147d9e,,46b1b03e-6aba-4879-b380-47127cec78e5,Water Point,water_point,5,Building,bu,46.683153,-16.003122
Secteur I,active,create,48842e63-801a-485b-9130-7bf76c889ad1,,9b606a8a-d316-4943-88d9-020a4a3d0bf7,Water Point,water_point,5,Building,bu,46.3989,-15.6993
Secteur I,active,create,dfee8bd0-1776-4f13-bbbd-657126e0435c,,861d42c7-d41a-4569-ab93-fdaa72203e92,Water Point,water_point,5,Building,bu,46.98233,-16.36292
Secteur Ii,active,create,7afe20fd-601b-4a91-bab7-69c1d37f7010,,46b1b03e-6aba-4879-b380-47127cec78e5,Water Point,water_point,5,Building,bu,46.96155,-15.86793
Secteur Ii,active,create,cd3581b2-b12f-45fb-8c41-57dc5fd95d57,,ef8a6a6f-7ac2-46d9-9467-ae88ed2a9ea4,Water Point,water_point,5,Building,bu,47.04499,-16.36354
Secteur Ii,active,create,d6129bb7-1bf3-4de9-afdc-424a08508e59,,9b606a8a-d316-4943-88d9-020a4a3d0bf7,Water Point,water_point,5,Building,bu,46.69477,-15.99492
"Secteur Iii, Csb",active,create,8958556f-b47a-4bbf-956c-a8b747d2bd89,,46b1b03e-6aba-4879-b380-47127cec78e5,Water Point,water_point,5,Building,bu,46.694,-15.995
"Secteur Iii,Epp",active,create,b21a27e4-a294-4156-9381-b12ae6d912d1,,c2df9c51-6629-4756-ab37-d58d51c02b30,Water Point,water_point,5,Building,bu,,
Secteur Iv,active,create,3778e6ac-51a1-4410-928b-6c7b8f023eee,,1a546a5e-573f-45df-b5e5-4fa11616d2a2,Water Point,water_point,5,Building,bu,46.8444,-16.3369
Secteur Iv,active,create,edfe2f1d-41e2-4027-aa14-cc830850c40a,,9b606a8a-d316-4943-88d9-020a4a3d0bf7,Water Point,water_point,5,Building,bu,47.0433,-16.36054
SEKOLIN'NY JAMBA,active,create,82b163fe-6f97-49f7-896f-4199c1f5b178,,69191346-9a9a-4dc1-8152-bfd50185cf12,Ecole priv,ecole_priv,5,Building,bu,,
Seranambary,active,create,9641643f-e434-4162-ae44-288a1e104345,,c9033de8-da1d-4d65-a17e-22ca21224b05,Village,village,5,Building,bu,48.1186,-21.781
Seranambary,active,create,c3e23762-90ba-47a6-83c4-35dac543c0bd,,c9033de8-da1d-4d65-a17e-22ca21224b05,Water Point,water_point,5,Building,bu,48.1186,-21.781
Service de District de la Population de la Protection Sociale et de la Promotion de la Femme Amboasary,active,create,d32e54cb-d6a8-44f6-be34-c6d72416836d,,124696f9-87ed-4178-ba7c-d100268dddba,DRPPSPF,drppspf,5,Building,bu,46.3853238,-25.0359198
Seta I,active,create,e39c8f8a-8a1a-4edd-8b91-3399a488ecc2,,4863b612-5843-41f8-a1ab-cca2f892fee0,Water Point,water_point,5,Building,bu,,
Sevalava,active,create,38b133df-3288-4a70-a31a-5d3553cb1847,,3e5a2e63-bc73-420c-896b-ab75d06632e8,Water Point,water_point,5,Building,bu,,
SEVOHIPOTY,active,create,983044a6-39ed-4aa2-909e-93624d9222cc,,f8f6820f-96eb-4999-82ec-8b809cff94de,Site Communautaire,site_communautaire,5,Building,bu,,
Sevohitse,active,create,be972ec4-9a33-437a-90b3-43f22c4339cd,,037f61e0-6af0-4530-8ce2-63124eba2a9b,Water Point,water_point,5,Building,bu,45.38607,-24.19477
Sihanaboay,active,create,fbec46bc-7bf3-416c-be3c-ee840829dca4,,45080bdf-d7cf-4745-b19b-f06c4dac96c0,Site Communautaire,site_communautaire,5,Building,bu,,
Sihanadaly/Antreaky,active,create,e6cca844-c359-4340-b3dc-ce9e19b464ca,,45080bdf-d7cf-4745-b19b-f06c4dac96c0,Site Communautaire,site_communautaire,5,Building,bu,,
Sihanamaro,active,create,cb96477a-e045-4571-9637-54f0bdba75b0,,d2953469-fbf7-4ece-a9df-8c1b00a96ede,Water Point,water_point,5,Building,bu,45.76135,-25.20884
Sihanamitohy I,active,create,ce2f0b2e-fac8-4c46-9bfc-6884f73d4fb7,,d2953469-fbf7-4ece-a9df-8c1b00a96ede,Site Communautaire,site_communautaire,5,Building,bu,,
Sitreky,active,create,d28dcdb7-eb21-40b8-a888-7b54e9a3fb3a,,a6b2e537-03d2-48d5-965a-c80ac9e49e1b,Water Point,water_point,5,Building,bu,47.60626,-23.31635
Soahazo Est,active,create,ec8271c6-493f-40b4-8062-1e30dcbd7bfd,,2a24b934-a536-4f7e-a9a6-0358bdc6cb2d,Water Point,water_point,5,Building,bu,43.67879,-22.4594
Soahazo I,active,create,579e4523-2369-460f-912a-af8adde1f0ac,,2a24b934-a536-4f7e-a9a6-0358bdc6cb2d,Water Point,water_point,5,Building,bu,,
Soahazo II,active,create,b1e626db-e76a-4a1a-9f51-cfcfd55d42ae,,2a24b934-a536-4f7e-a9a6-0358bdc6cb2d,Water Point,water_point,5,Building,bu,,
Soahazo Iii,active,create,d8f96040-2cb9-45ad-8691-b0aa5fcc5f05,,2a24b934-a536-4f7e-a9a6-0358bdc6cb2d,Water Point,water_point,5,Building,bu,43.67464,-22.46503
Soahazo Ouest,active,create,e1cddb1a-fddc-48fd-90b0-8c709d015aac,,2a24b934-a536-4f7e-a9a6-0358bdc6cb2d,Water Point,water_point,5,Building,bu,43.67722,-22.45997
Soakibany Centre,active,create,547707d4-d433-41db-8893-57d17eeda71a,,e9beb16a-fb0b-4aa2-97b5-9668f323af7b,Water Point,water_point,5,Building,bu,45.25078,-24.91747
Soakija,active,create,7dd9d937-8fb7-470a-9e4b-93e2b0272fad,,8b79f6e0-d95e-4bf9-bd5c-ecc26834b201,Water Point,water_point,5,Building,bu,45.35949,-24.28543
Soakija,active,create,e4b03885-019e-414c-bf7b-48995bf77883,,e9beb16a-fb0b-4aa2-97b5-9668f323af7b,Water Point,water_point,5,Building,bu,45.23228,-24.07689
Soakija,active,create,ef6a30f9-d5c0-49cd-8aff-914d5326c3cd,,f68b7052-c16f-4d64-94a7-f316153ee7e8,Water Point,water_point,5,Building,bu,46.06019694,-23.0459
Soamanantombo,active,create,6049f82b-ab7e-49f3-a44c-61ef635f00b8,,8f127dd1-8e58-4d53-b273-bf8945e3e43a,Water Point,water_point,5,Building,bu,47.5207222,-18.919333
SOAMANDROSO,active,create,752e8fa1-8768-4aa7-8b39-41ffc709c26b,,df16044d-7511-4334-9728-e8735eab9935,Water Point,water_point,5,Building,bu,,
Soamangnitse,active,create,d39aa720-31c0-43fa-a0a2-1c5ec84a3481,,81fbdd83-3e3b-42a3-92c8-0c8a526a18d2,Water Point,water_point,5,Building,bu,44.98944,-25.43931
Soamanitra,active,create,82d9b549-84d4-4ae2-b048-af6d8fdc260a,,81fbdd83-3e3b-42a3-92c8-0c8a526a18d2,Site Communautaire,site_communautaire,5,Building,bu,44.987553,-25.439919
SOAMANONGA OUEST,active,create,59eed028-ece8-4eb0-a6c8-7a3debaa1654,,badd39e4-9213-453e-b7ff-c26ac1dae9fa,Water Point,water_point,5,Building,bu,44.378399,-24.038857
Soamarama,active,create,b1bf8d21-a59d-4396-97f4-d8469691fee6,,75b22baf-37a9-4d42-8fd6-7ca7912d2a4a,Water Point,water_point,5,Building,bu,45.26196,-24.55342
Soamazava,active,create,914d2fc5-de82-49a1-89cb-26af2e43355d,,d31e73a7-c487-44dc-8a32-d70ac572ad81,Water Point,water_point,5,Building,bu,45.73843806,-23.24155111
SOANDRO (fkt TSIHOMBE-1),active,create,958638a8-3a59-4feb-9176-60a165b7e1a6,,edd7bc75-fc97-4748-840c-2fc554322284,CSB2,csb2,5,Building,bu,,
SOANIAVINA,active,create,db20ccf8-428c-4cfa-92b5-ffb17d700894,,2ac11983-82a5-40a1-81db-f326b996da2e,Water Point,water_point,5,Building,bu,,
Soarano,active,create,73515814-1f02-4863-9084-1684e31ddf50,,749e8f17-0875-423f-a1ec-953edfcd171c,Water Point,water_point,5,Building,bu,45.46730556,-24.28606389
Soaserana,active,create,423697ee-5a61-45bd-bacf-cec41ce0dc3e,,5d25d248-4468-4c96-a566-4a539c7928f8,Water Point,water_point,5,Building,bu,45.68904,-24.84926
Soaserana,active,create,7804cfdf-3ef1-40bd-8f89-4ff28814c818,,03022ae7-30ae-4353-b67e-02e075995999,Water Point,water_point,5,Building,bu,44.90519,-23.88206
Soaserana,active,create,e2be054a-cfb7-45c3-915a-5118dcb66f34,,5d25d248-4468-4c96-a566-4a539c7928f8,Water Point,water_point,5,Building,bu,45.3429,-24.11411
SOASERANA,active,create,54a1f819-f6f1-472e-a270-34adf4e3f0b4,,03022ae7-30ae-4353-b67e-02e075995999,Water Point,water_point,5,Building,bu,44.542057,-23.53215
Soatamea centre,active,create,bed7337c-8a6b-4398-95ac-eb2db480484d,,457c79c3-09a5-4967-abe5-9ba010354d1a,Site Communautaire,site_communautaire,5,Building,bu,,
Soatana Est,active,create,280a432d-43a3-4f2b-8c76-a436428effb4,,b12b888d-207a-4eda-ae28-80d69be396e6,Water Point,water_point,5,Building,bu,44.49053,-19.08499
Soatanna,active,create,c9a67e68-6af1-41cc-af4d-e11f77cd8d9f,,eadf078b-2054-4723-8af1-5d16c18ac240,Water Point,water_point,5,Building,bu,49.26644,-17.40492
Soatanna Ambatoasna,active,create,fc3c3b17-a24b-4da9-97d8-b628320fe0e0,,eadf078b-2054-4723-8af1-5d16c18ac240,Water Point,water_point,5,Building,bu,49.26648,-17.40508
Soatanna (Anivorano),active,create,16ad76da-ea8e-4e6d-92fc-22be6063f56f,,eadf078b-2054-4723-8af1-5d16c18ac240,Water Point,water_point,5,Building,bu,49.264,-17.40675
Soatana Nord,active,create,ef790fab-552d-42ad-aa5d-e6294615dfd2,,b12b888d-207a-4eda-ae28-80d69be396e6,Water Point,water_point,5,Building,bu,44.48882,-19.08363
Soatana Ouest,active,create,60bd0ca6-1962-4e30-89ea-2fab201b56e7,,b12b888d-207a-4eda-ae28-80d69be396e6,Water Point,water_point,5,Building,bu,44.4883,-19.08533
Soatsifa Agnivorano,active,create,38effc9e-63f5-4ecb-b377-06715c1e2f1e,,457c79c3-09a5-4967-abe5-9ba010354d1a,Site Communautaire,site_communautaire,5,Building,bu,,
Soatsifa Haut,active,create,74c8191a-6716-4837-95df-79cfc86e0f20,,457c79c3-09a5-4967-abe5-9ba010354d1a,Site Communautaire,site_communautaire,5,Building,bu,,
Soatsifa I,active,create,70adc290-a430-470c-9278-6272598ea877,,457c79c3-09a5-4967-abe5-9ba010354d1a,Site Communautaire,site_communautaire,5,Building,bu,,
Soatsirana,active,create,c3ba1fa9-bb5c-4caa-b8a3-42358dc9645a,,5d7f54c9-bed4-4d0d-98a2-132b024f076e,Water Point,water_point,5,Building,bu,47.61083,-23.21952
Soavary,active,create,54b45922-12a8-4e3f-8dff-4274c37ab7f4,,1ea89a7d-f68a-463c-b9a8-2f3f5883c506,Water Point,water_point,5,Building,bu,47.34052,-24.14497
Soavary Centre,active,create,0b0213e9-d3ed-4a7b-a407-e14827297b0b,,1ea89a7d-f68a-463c-b9a8-2f3f5883c506,Water Point,water_point,5,Building,bu,47.34051944,-24.14497222
Soavina Est,active,create,9280a61e-9257-4857-9f80-a7acdafbe077,,a53fc23e-85e3-47fd-9d6b-41240da76e28,CSB2,csb2,5,Building,bu,,
Soramena,active,create,d02dc0bc-7bcf-4500-956e-a73931968e9b,,edd7bc75-fc97-4748-840c-2fc554322284,Water Point,water_point,5,Building,bu,45.29786,-25.51428
SORAMENA,active,create,899b7127-38f9-452f-8432-618357869e21,,cbd7ab07-5855-4335-85fb-7514bd0c8bab,Site Communautaire,site_communautaire,5,Building,bu,,
SOS Antok'aina Taolagnaro,active,create,c8d71a56-7954-441c-9da1-ffee96860349,,09b3b46f-71a1-45f7-9ab4-b93e449e2205,CSB2,csb2,5,Building,bu,,
SOS SAKAMASY Tsihombe,active,create,194d0b40-47d3-4821-8291-d1d959c34c5c,,edd7bc75-fc97-4748-840c-2fc554322284,CSB1,csb1,5,Building,bu,45.6364,-25.2966
SOS VILLAGE D'ENFANT SAKAMASY,active,create,50597287-8945-404e-864f-24e806845d14,,edd7bc75-fc97-4748-840c-2fc554322284,Warehouse,warehouse,5,Building,bu,,
Sovatry,active,create,4b5834c0-0828-4a8f-8291-28605a7ef573,,2601ccb0-b1e8-4ee7-ba9a-e9d2f9d48f06,Water Point,water_point,5,Building,bu,45.47315,-24.79593
SOVATRY,active,create,52a093e1-6a5a-4c8f-92c2-6e005d0bca5e,,2601ccb0-b1e8-4ee7-ba9a-e9d2f9d48f06,Water Point,water_point,5,Building,bu,,
Talakifeno  Anarabe,active,create,421571be-6af3-43af-93d3-4499e0ff95e6,,333e8803-a727-4874-9913-21a7136c220b,Water Point,water_point,5,Building,bu,46.8619,-24.947575
Talakifeno  Coco,active,create,45940ce0-5cc3-4655-94fe-2867757d915b,,333e8803-a727-4874-9913-21a7136c220b,Water Point,water_point,5,Building,bu,46.86664,-24.94287806
Talaky Bas,active,create,a6f7b25b-6eeb-4181-9529-c7181944edbe,,5f666d29-8b8c-4ebf-a630-e2cad0cb3685,Water Point,water_point,5,Building,bu,,
TALAKY BAS,active,create,fb6256a3-c2ac-4981-baee-08a839de807d,,5f666d29-8b8c-4ebf-a630-e2cad0cb3685,Site Communautaire,site_communautaire,5,Building,bu,,
TALAKY Centre,active,create,6c10c1ea-02bd-48c3-aaf5-b54a841082d9,,f8f6820f-96eb-4999-82ec-8b809cff94de,Site Communautaire,site_communautaire,5,Building,bu,,
Tamboholava,active,create,e7b62f80-9e19-478e-89fc-2c7725c85817,,b504328e-527a-4d73-bd12-f009be583e5a,CSB1,csb1,5,Building,bu,,
Tamboro Est,active,create,9b455b4d-20cd-4340-8362-d6a44cdcb652,,17588bca-da82-458e-8c57-f9ad3b095026,Water Point,water_point,5,Building,bu,47.97626,-22.00877
Tamboro Est,active,create,f429b5ad-b463-498c-96d6-ad59e853532c,,17588bca-da82-458e-8c57-f9ad3b095026,Village,village,5,Building,bu,47.97626,-22.00877
Tamboro Ouest,active,create,53e4756e-dc07-4c54-a91f-51f86b59569b,,17588bca-da82-458e-8c57-f9ad3b095026,Water Point,water_point,5,Building,bu,47.97392,-22.00735
Tamboro Ouest,active,create,e8f3ff2c-8e5c-4a10-a501-bd5eab0c1c26,,17588bca-da82-458e-8c57-f9ad3b095026,Village,village,5,Building,bu,47.97392,-22.00735
TAMONTO KATSAKALA,active,create,5169ec84-4872-4a58-8cd8-0c657f6e3f1a,,409bb851-c200-4643-b590-5f0b2005e8d2,Site Communautaire,site_communautaire,5,Building,bu,,
TAMPOTOTSE MAROMAINTE,active,create,ecb61cf6-827c-4c65-aef6-55dce1e5352c,,409bb851-c200-4643-b590-5f0b2005e8d2,Site Communautaire,site_communautaire,5,Building,bu,45.56774,-25.392076
TAMPOTOTSE NORD,active,create,f5d15b58-7205-4201-86f3-e9468e5f7a1e,,409bb851-c200-4643-b590-5f0b2005e8d2,Site Communautaire,site_communautaire,5,Building,bu,,
Tanakidy,active,create,8f379157-335d-4616-b3b9-44217d2396c8,,c149b572-ebc8-460b-8709-a7335b536d5f,Water Point,water_point,5,Building,bu,47.69624444,-22.56458611
Tanalavabe,active,create,306d56ba-91bb-4bfd-aaa2-b50201c36210,,79b58d2f-f069-41fe-87c5-45f20f3263c9,Water Point,water_point,5,Building,bu,44.76436,-25.08328
Tanamakoa,active,create,6717825a-9200-4072-8bb4-b79c22de2e30,,f8a96f70-3460-4957-bb58-146714a1de08,Water Point,water_point,5,Building,bu,49.68781,-16.86003
Tanamary,active,create,775f86c1-ba51-4630-8cac-2cd8efe90646,,2601ccb0-b1e8-4ee7-ba9a-e9d2f9d48f06,Water Point,water_point,5,Building,bu,45.511,-24.89767
Tanambao,active,create,0a69aabc-8d67-4de2-aa17-ccf44188c212,,e9beb16a-fb0b-4aa2-97b5-9668f323af7b,Water Point,water_point,5,Building,bu,,
Tanambao,active,create,0c516733-78b5-4668-b26e-fac2a906c839,,86882426-0907-435e-91b4-54eec60989f7,Village,village,5,Building,bu,45.25115,-24.13919
Tanambao,active,create,2502e8e5-202d-4cc3-86f9-a94446880171,,86882426-0907-435e-91b4-54eec60989f7,Water Point,water_point,5,Building,bu,0,0
Tanambao,active,create,3fa2a7c8-8e66-46c2-9d1e-a0af493c6cb7,,4e4b1d7c-466a-4ddb-9a25-e7227947404a,Water Point,water_point,5,Building,bu,47.674944,-22.660444
Tanambao,active,create,5cfa5cf2-b152-4be6-b889-018861ada3c3,,9f48cfda-9cea-4f5c-b417-c536524579d9,Water Point,water_point,5,Building,bu,48.47955694,-20.77249611
Tanambao,active,create,6baf8983-49a4-4f99-a655-9f351fbe3ee1,,a6fe0fd7-79e8-41ed-b5a4-2be45df7f47c,Water Point,water_point,5,Building,bu,,
Tanambao,active,create,73797f5b-ca0c-4df5-b0ac-7acf190f41cc,,4342c258-a4f9-4f05-8356-42be448ffec7,Water Point,water_point,5,Building,bu,45.308192,-24.222237
Tanambao,active,create,b2fb3262-ac49-4df0-81fd-4c0155e69830,,d4eb189a-5cb6-46ed-8eac-3653c1852d77,Water Point,water_point,5,Building,bu,47.868846,-22.388327
Tanambao,active,create,c1513f4e-ad59-4417-8c10-a2c139721837,,222ce2c0-687e-4229-aecf-91f34d2597e9,Water Point,water_point,5,Building,bu,48.22581111,-21.19120278
Tanambao,active,create,d0bffa07-ccbf-43b3-b137-9cd16ed6c0f4,,15e3dc94-d0c9-43f1-bbc5-4f3b19883f0f,Water Point,water_point,5,Building,bu,49.58444,-16.92333
Tanambao,active,create,d4e18697-a36c-4f1c-b664-9f72b367b155,,42c86929-005d-42d1-8277-50e374ff3337,Water Point,water_point,5,Building,bu,,
Tanambao,active,create,dda4389c-d4a8-4998-ae02-b6abe8f5d205,,749e8f17-0875-423f-a1ec-953edfcd171c,Water Point,water_point,5,Building,bu,45.2725509,-24.166284
Tanambao,active,create,e09ec8d6-2cc2-4c3f-83ca-2ffc68723b7b,,4e4b1d7c-466a-4ddb-9a25-e7227947404a,Water Point,water_point,5,Building,bu,47.67494,-22.66044
Tanambao,active,create,e3e5b030-575b-413d-8ad0-06768645f137,,5d25d248-4468-4c96-a566-4a539c7928f8,Water Point,water_point,5,Building,bu,47.85358,-22.3774
Tanambao,active,create,ff8e16c9-2c2d-48e2-b500-1691a8def35f,,037f61e0-6af0-4530-8ce2-63124eba2a9b,Water Point,water_point,5,Building,bu,45.46025,-24.24892
Tanambao,active,create,2ac9c2d8-dd7c-4823-ac8c-67eac566d676,,f68b7052-c16f-4d64-94a7-f316153ee7e8,Water Point,water_point,5,Building,bu,46.04093389,-23.135625
TANAMBAO,active,create,a1266f82-a363-49df-81fe-268f742f34c6,,a6fe0fd7-79e8-41ed-b5a4-2be45df7f47c,Water Point,water_point,5,Building,bu,,
TANAMBAO,active,create,a6305a17-3e26-4576-9403-bb934bcf1d6c,,2ac11983-82a5-40a1-81db-f326b996da2e,Water Point,water_point,5,Building,bu,46.78488889,-16.40155556
Tanambao 2,active,create,43d13ef6-5b75-44d0-a2e4-a9f53bfd7b83,,5d25d248-4468-4c96-a566-4a539c7928f8,Water Point,water_point,5,Building,bu,45.260635,-24.00736389
Tanambao Ambinany,active,create,4212acc8-c946-4ba4-ba3a-da67fdbdc1bb,,9e0dac3f-285e-48a9-b708-e3b8b2c274e0,Water Point,water_point,5,Building,bu,,
Tanambao Besasavy,active,create,7fb1086e-d599-498d-9823-00c8997334eb,,79b58d2f-f069-41fe-87c5-45f20f3263c9,Water Point,water_point,5,Building,bu,44.62642,-25.11792
Tanambao Bitavola I,active,create,9723034c-433a-4bec-b2c7-5b111e3d11e1,,9e0dac3f-285e-48a9-b708-e3b8b2c274e0,Water Point,water_point,5,Building,bu,49.48076,-17.16442
Tanambao Bitavola Ii,active,create,f3b32f58-2160-428f-8372-5a7bca25f8bf,,9e0dac3f-285e-48a9-b708-e3b8b2c274e0,Water Point,water_point,5,Building,bu,49.46838,-17.18877
"Tanambao,Carriere",active,create,3442e26b-b163-4823-ad7a-5ab9e1c5c715,,861d42c7-d41a-4569-ab93-fdaa72203e92,Water Point,water_point,5,Building,bu,46.628,-15.9997
Tanambao Centre,active,create,c36cbddb-f5d8-4551-8429-9194c0bf46c9,,23c35721-4ab5-4661-ad50-a1962bb7851d,Water Point,water_point,5,Building,bu,45.83900813,-23.72013041
Tanambao Centre,active,create,e44e901a-1767-4a02-a8e9-ede2d9934289,,9672b87b-9c5a-41a9-b9a4-d8caf2967947,Water Point,water_point,5,Building,bu,46.13778,-24.80636
TANAMBAO CENTRE,active,create,96dd707a-b2b7-4b04-8733-aee05f9bb52e,,df16044d-7511-4334-9728-e8735eab9935,Water Point,water_point,5,Building,bu,46.50561111,-16.18827778
Tanambao Efaly,active,create,a16836b4-8b74-4261-a7fd-d63543c388fe,,457c79c3-09a5-4967-abe5-9ba010354d1a,Site Communautaire,site_communautaire,5,Building,bu,,
Tanambao I,active,create,71a844c8-901c-4c3c-a147-930c1f520e46,,9e0dac3f-285e-48a9-b708-e3b8b2c274e0,Water Point,water_point,5,Building,bu,49.446349,-17.20158
Tanambao I,active,create,94c7edfa-2277-4d07-bf1c-cf2633a660f4,,9672b87b-9c5a-41a9-b9a4-d8caf2967947,Water Point,water_point,5,Building,bu,46.13739,-24.80639
Tanambao I,active,create,f96d6d80-f9aa-4f35-8ce3-ab5f2dce3338,,9e0dac3f-285e-48a9-b708-e3b8b2c274e0,Water Point,water_point,5,Building,bu,,
Tanambao/Isoanala Nord,active,create,13a44290-deee-43e5-b2b1-9037b447c6a9,,08a61379-f59c-415b-bc5b-b03d941a9787,Site Communautaire,site_communautaire,5,Building,bu,,
Tanambao Mahavelo,active,create,960c9dec-4742-4fbd-b19c-a4dba05ced2b,,437a9492-22a6-4e12-9d03-efe8f0fa03b0,Water Point,water_point,5,Building,bu,43.942707,-24.702856
Tanambao Matsokely,active,create,3219b05d-06ee-4784-960e-51535dee2e5c,,15e3dc94-d0c9-43f1-bbc5-4f3b19883f0f,Water Point,water_point,5,Building,bu,49.58528,-16.9025
Tanambao Namahoaka P1,active,create,2bd5fcfc-61d7-40e4-bea4-9e02a019af1f,,3a549dea-f588-417b-a658-77f70cc9a9b4,Water Point,water_point,5,Building,bu,49.46269,-17.58094
Tanambao Namahoaka P1,active,create,89e04f44-be2e-4e5b-9f2c-499d21f54b38,,3a549dea-f588-417b-a658-77f70cc9a9b4,Water Point,water_point,5,Building,bu,49.4626944,-17.580944
Tanambao Namahoaka P2,active,create,7cc0138f-4a46-4335-b7fb-c2a559ebeaf8,,3a549dea-f588-417b-a658-77f70cc9a9b4,Water Point,water_point,5,Building,bu,49.46738055,-17.5621722
Tanambao Namahoaka P2,active,create,cce2849f-8d76-44f9-80ce-83c5fd810d25,,3a549dea-f588-417b-a658-77f70cc9a9b4,Water Point,water_point,5,Building,bu,49.46738,-17.56217
Tanambao Sakondry,active,create,58203d78-7a89-4963-a53d-bef7e440c5ab,,3e5a2e63-bc73-420c-896b-ab75d06632e8,EPP,epp,5,Building,bu,,
Tanambao Sud,active,create,6e2bd7a5-0815-4514-a9bc-2ad0f6460658,,457c79c3-09a5-4967-abe5-9ba010354d1a,Site Communautaire,site_communautaire,5,Building,bu,,
Tanambao Tanandava,active,create,acc9903b-4c2f-4854-aaea-0b6dbe4d5deb,,d0a79494-c31d-4009-86ca-c1decbc3d6d9,Water Point,water_point,5,Building,bu,45.66852694,-24.18429
Tanambaotsara Andrefana Afovoany,active,create,4e35305c-4b12-4b01-be7e-c045dde40353,,7174ae50-4d3d-4fd1-a906-4fab680bede5,Water Point,water_point,5,Building,bu,46.74806,-16.20664
Tanambao-vohitromby,active,create,e4f5a479-9d7e-4dad-9dbd-1377b8ca3375,,4e4b1d7c-466a-4ddb-9a25-e7227947404a,Water Point,water_point,5,Building,bu,47.67440278,-22.66163889
Tanambe,active,create,d8786c72-9fd2-4b64-9099-2d3360973da5,,6f7933af-a024-435e-a875-a73fbdb69180,Site Communautaire,site_communautaire,5,Building,bu,,
TANAMBE,active,create,9923a847-c72a-4260-b66d-1c5eb5d1e770,,881e02a8-b2c9-4491-b303-27b008587a39,Water Point,water_point,5,Building,bu,45.15202222,-24.20352778
Tanambe1,active,create,dfd8940d-ab9e-4f92-ab68-635db060d34f,,fff386bb-d84f-435f-9b88-e25027d06662,Water Point,water_point,5,Building,bu,45.4449,-24.285025
Tanambe 2,active,create,321c6325-9687-4384-af40-4c1460772334,,fff386bb-d84f-435f-9b88-e25027d06662,Water Point,water_point,5,Building,bu,45.4449,-24.30025
Tanambe  Managnatagna,active,create,cf1d06d2-bafe-4442-8467-86bf3de6bd44,,5d25d248-4468-4c96-a566-4a539c7928f8,Water Point,water_point,5,Building,bu,45.37895389,-24.15609806
Tanamompera,active,create,25e55723-17bb-405e-a7de-fa6406905143,,eadf078b-2054-4723-8af1-5d16c18ac240,Water Point,water_point,5,Building,bu,49.26122,-17.42231
Tanamompera Nosibe,active,create,c287e48b-b5ff-4199-b7d0-75d6bddd355d,,eadf078b-2054-4723-8af1-5d16c18ac240,Water Point,water_point,5,Building,bu,49.26117,-17.42223
Tanandava,active,create,1afc3eb5-0e29-4668-a799-ecf7d3ae4f5b,,5e1ddbbb-a08c-4a05-a225-36788acf6baa,Water Point,water_point,5,Building,bu,45.4000906,-24.0518972
Tanandava,active,create,3d583a13-d8e6-4eb5-aabe-a6cc28845a78,,554d185a-2816-4732-b183-9c370db14ea1,Village,village,5,Building,bu,45.3804,-24.07924
Tanandava,active,create,6991f7d1-b2c3-4017-b151-7f29886fa60e,,4863b612-5843-41f8-a1ab-cca2f892fee0,Water Point,water_point,5,Building,bu,,
Tanandava,active,create,77594925-7fe7-4526-991a-5d9e8b7bc138,,437a9492-22a6-4e12-9d03-efe8f0fa03b0,Water Point,water_point,5,Building,bu,,
Tanandava,active,create,9db7e03a-9f6c-44a4-9ce4-c5f574cfc81b,,d2953469-fbf7-4ece-a9df-8c1b00a96ede,Site Communautaire,site_communautaire,5,Building,bu,,
Tanandava,active,create,9e472888-d9b1-4f05-8836-86f069f01521,,554d185a-2816-4732-b183-9c370db14ea1,Water Point,water_point,5,Building,bu,0,0
Tanandava,active,create,bbb516df-ef73-4d7f-a4a0-cc75ad815e4c,,e9beb16a-fb0b-4aa2-97b5-9668f323af7b,Water Point,water_point,5,Building,bu,45.2803111,-24.0323189
Tanandava,active,create,d713d354-d950-4abd-aca2-d1555fe5821f,,4fa8031b-51a6-49a8-ac01-8dce533d58d0,Water Point,water_point,5,Building,bu,47.80446667,-22.90911111
Tanandava,active,create,d87b1ee0-ec81-4dd1-a0cb-fe8af77b2ae0,,8580a687-cfd7-4ca7-85df-12e585021277,Water Point,water_point,5,Building,bu,45.22154,-24.5477
Tanandava,active,create,eebbdc22-9a5d-46e7-96f3-c262f3e90e37,,79b58d2f-f069-41fe-87c5-45f20f3263c9,Site Communautaire,site_communautaire,5,Building,bu,,
TANANDAVA,active,create,d3396d17-5cfe-47a1-b518-0f420eaa0e51,,38679362-2eb0-4eb1-87d0-6b78fa7e733d,Water Point,water_point,5,Building,bu,45.599834,-24.667653
TANANDAVA,active,create,d4596b7c-99ac-4118-8c06-305ccf96190c,,f0ec4526-d5d8-4c7b-b924-bac45cdb54cd,Site Communautaire,site_communautaire,5,Building,bu,,
Tanandava Centre,active,create,0de98ba4-66cc-463c-ab6e-7a0540758580,,70599be8-4745-411a-ae7f-655bc5d476c9,Water Point,water_point,5,Building,bu,44.14289,-18.04303
Tanandava Centre,active,create,46719084-ba70-4dee-8307-43da7678a136,,d4eb189a-5cb6-46ed-8eac-3653c1852d77,Water Point,water_point,5,Building,bu,47.85123,-22.37662
Tanandava Centre,active,create,c363e690-8720-4f8e-a1eb-1e68046c227d,,d4eb189a-5cb6-46ed-8eac-3653c1852d77,Water Point,water_point,5,Building,bu,47.85123,-22.37662
Tanandava Est,active,create,b0a34de5-4132-47f6-93c1-6ffbd7d762a8,,d4eb189a-5cb6-46ed-8eac-3653c1852d77,Water Point,water_point,5,Building,bu,47.85123,-22.37662
Tanandava Est,active,create,f9d741a3-f707-466b-ae41-1dbfe60a72af,,d4eb189a-5cb6-46ed-8eac-3653c1852d77,Water Point,water_point,5,Building,bu,47.85123,-22.37662
Tanandava Ii,active,create,213b1632-b261-4faa-b33e-40e56f6b7363,,6f7933af-a024-435e-a875-a73fbdb69180,Water Point,water_point,5,Building,bu,46.44714,-25.13967
Tanandava Maroroka,active,create,a39e8bc6-8d47-4a86-be07-01684348ccda,,4fa8031b-51a6-49a8-ac01-8dce533d58d0,Water Point,water_point,5,Building,bu,47.804467,-22.909111
Tanandava Ouest,active,create,19bfd916-7160-4644-8099-746bb224e2e5,,d4eb189a-5cb6-46ed-8eac-3653c1852d77,Water Point,water_point,5,Building,bu,47.86002,-22.37962
Tanandava Ouest,active,create,3f02f8af-3f89-408f-bf1c-abacaef838b2,,70599be8-4745-411a-ae7f-655bc5d476c9,Water Point,water_point,5,Building,bu,44.14067,-18.04325
Tanandava Ouest,active,create,6965c6c7-e55e-43f8-bfbc-f0a2b07a0f6a,,d4eb189a-5cb6-46ed-8eac-3653c1852d77,Water Point,water_point,5,Building,bu,47.86002,-22.37962
Tanandava Sud,active,create,c8ebdd36-c2c9-4b87-9c78-ba0e09fc8283,,08a61379-f59c-415b-bc5b-b03d941a9787,Site Communautaire,site_communautaire,5,Building,bu,,
TANANONDATY,active,create,5c9bd2b5-6cdb-44c1-9625-837151df6c1e,,84a0d267-b156-44f8-8b14-dccc838762ea,Water Point,water_point,5,Building,bu,,
Tanantsoa,active,create,3afe6bcf-89f0-43a5-9f68-5a3a454f9233,,d31e73a7-c487-44dc-8a32-d70ac572ad81,Water Point,water_point,5,Building,bu,45.81334444,-23.80351389
Tanantsoa,active,create,a5e492d5-ec0a-4b5f-9df2-b17a9c3bb430,,75b22baf-37a9-4d42-8fd6-7ca7912d2a4a,Site Communautaire,site_communautaire,5,Building,bu,,
Tanantsoa,active,create,c1c52ed6-cf1b-4dae-bf59-07ea6b2001e5,,4a4c7fe2-5003-44c2-b405-2d5850b612a3,Water Point,water_point,5,Building,bu,,
Tanasoa,active,create,798cdf8c-6e8b-4b40-8cd2-9a10dce45978,,fff386bb-d84f-435f-9b88-e25027d06662,Water Point,water_point,5,Building,bu,45.427,-24.30148611
Tandrano,active,create,e93b1b8f-b89e-49d5-91b7-744562050508,,65582195-1082-4610-b390-a6806e30e3af,Water Point,water_point,5,Building,bu,44.63983,-22.08259
Tanetilava Et Vohitsoa,active,create,2f5b1716-988e-4973-b7f3-bac731ac0c9c,,2b0f48ab-d7e0-46c3-ac1c-6c51be595b10,Water Point,water_point,5,Building,bu,49.29668,-17.35513
TANETILAVA ET VOHITSOA,active,create,0f1bbe3c-772f-4f1f-97f3-c0d2e9e0880b,,2b0f48ab-d7e0-46c3-ac1c-6c51be595b10,Water Point,water_point,5,Building,bu,49.296683,-17.35513
Tanimena,active,create,8e1f87ff-da62-437f-9263-883e32558cd2,,577271cc-bb56-43ae-96f3-966db1c2c5ca,Water Point,water_point,5,Building,bu,43.48466,-22.96471
Taolambositra Ambany,active,create,c3731d5e-61f8-48dd-a0c0-12a9a8d90d31,,4a4c7fe2-5003-44c2-b405-2d5850b612a3,Water Point,water_point,5,Building,bu,44.753601,-24.25707
Taolambositra Centre,active,create,7dded06d-7e26-4c6d-88f5-d30955eda99a,,4a4c7fe2-5003-44c2-b405-2d5850b612a3,Water Point,water_point,5,Building,bu,44.737361,-24.267944
